Name,Country,Latitude,Longitude,Elevation,Type,Status,marker-symbol
Abu,Japan,34.5,131.6,571,Shield volcano,Holocene,vol-red
Acamarachi,Chile,-23.3,-67.62,6046,Stratovolcano,Holocene,vol-red
Acatenango,Guatemala,14.501,-90.876,3976,Stratovolcano,Historical,vol-red
Acigol-Nevsehir,Turkey,38.57,34.52,1689,Maar,Holocene,vol-red
Adams,United States,46.206,-121.49,3742,Stratovolcano,Tephrochronology,vol-red
Adatara,Japan,37.62,140.28,1718,Stratovolcano,Historical,vol-red
Adwa,Ethiopia,10.07,40.84,1733,Stratovolcano,Holocene,vol-red
Afdera,Ethiopia,13.08,40.85,1295,Stratovolcano,Holocene,vol-red
Agmagan-Karadag,Armenia,40.275,44.75,3560,Volcanic field,Holocene,vol-red
Agrigan,United States,18.77,145.67,965,Stratovolcano,Historical,vol-red
Agua,Guatemala,14.465,-90.743,3760,Stratovolcano,Holocene,vol-red
Agua de Pau,Portugal,37.77,-25.47,947,Stratovolcano,Historical,vol-red
Aguilera,Chile,-50.17,-73.83,0,Stratovolcano,Radiocarbon,vol-red
Agung,Indonesia,-8.342,115.508,3142,Stratovolcano,Historical,vol-red
Ahyi,United States,20.42,145.03,-137,Submarine volcano,Uncertain,vol-red
Akademia Nauk,Russia,53.98,159.45,1180,Stratovolcano,Historical,vol-red
Akademia Nauk,Russia,53.983,159.45,1180,Stratovolcanoes,Historical,vol-red
Akagi,Japan,36.53,139.18,1828,Stratovolcano,Historical,vol-red
Akan,Japan,43.38,144.02,1499,Caldera,Historical,vol-red
Akhtang,Russia,55.43,158.65,1956,Shield volcano,Holocene,vol-red
Akita-Komaga-take,Japan,39.75,140.8,1637,Stratovolcano,Historical,vol-red
Akita-Yake-yama,Japan,39.97,140.77,1366,Complex volcano,Historical,vol-red
Akuseki-jima,Japan,29.45,129.6,586,Stratovolcano,Holocene,vol-red
Akuseki-jima,Japan,29.461,129.597,584,Stratovolcanoes,Holocene?,vol-red
Akutan,United States,54.13,-165.97,1303,Stratovolcano,Historical,vol-red
Alaid,Russia,50.858,155.55,2339,Stratovolcano,Historical,vol-red
Alamagan,United States,17.6,145.83,744,Stratovolcano,Radiocarbon,vol-red
Alayta,Ethiopia,12.88,40.57,1501,Shield volcano,Historical,vol-red
"Albano, Monte",Italy,41.73,12.7,949,Caldera,Holocene,vol-red
"Alcedo, Volcan",Ecuador,-0.43,-91.12,1130,Shield volcano,Historical,vol-red
Ale Bagu,Ethiopia,13.52,40.63,1031,Stratovolcano,Holocene,vol-red
Alid,Eritrea,14.88,39.92,904,Stratovolcano,Holocene,vol-red
Alligator Lake,Canada,60.42,-135.42,2217,Volcanic field,Holocene,vol-red
Almolonga,Guatemala,14.82,-91.48,3197,Stratovolcano,Historical,vol-red
Alney-Chashakondzha,Russia,56.7,159.65,2598,Stratovolcano,Holocene,vol-red
Alngey,Russia,57.7,160.4,1853,Stratovolcano,Holocene,vol-red
Alu,Ethiopia,13.82,40.55,429,Fissure vent,Holocene,vol-red
Alutu,Ethiopia,7.77,38.78,2335,Stratovolcano,Holocene,vol-red
Amak,United States,55.42,-163.15,513,Stratovolcano,Historical,vol-red
Amasing,Indonesia,-0.55,127.5,1030,Stratovolcano,Holocene,vol-red
Ambalatungan Group,Philippines,17.32,121.1,2329,Compound volcano,Fumarolic,vol-red
Ambang,Indonesia,0.75,124.42,1795,Complex volcano,Historical,vol-red
Ambitle,Papua New Guinea,-4.08,153.65,450,Stratovolcano,Radiocarbon,vol-red
Amboy,United States,34.55,-115.78,288,Cinder cone,Holocene,vol-red
Ambre-Bobaomby,Madagascar,-12.48,49.1,1475,Volcanic field,Holocene,vol-red
Ambrym,Vanuatu,-16.25,168.12,1334,Pyroclastic shield,Historical,vol-red
Amorong,Philippines,15.828,120.805,376,Unknown,Fumarolic,vol-red
Amsterdam Island,Indian Ocean,-37.83,77.52,881,Stratovolcano,Holocene,vol-red
Amukta,United States,52.5,-171.25,1066,Stratovolcano,Historical,vol-red
Anatahan,United States,16.35,145.67,788,Stratovolcano,Holocene,vol-red
Anaun,Russia,56.32,158.83,1828,Stratovolcano,Holocene,vol-red
Andahua Valley,Peru,-15.42,-72.33,4713,Cinder cone,Holocene,vol-red
Andrus,Antarctica,-75.8,-132.33,2978,Shield volcano,Holocene,vol-red
Aneityum,Vanuatu,-20.2,169.83,852,Stratovolcano,Holocene,vol-red
Aniakchak,United States,56.88,-158.17,1341,Caldera,Historical,vol-red
Ankaizina Field,Madagascar,-14.3,48.67,2878,Cinder cone,Holocene,vol-red
Ankaratra Field,Madagascar,-19.4,47.2,2644,Cinder cone,Holocene,vol-red
Antillanca Group,Chile,-40.771,-72.153,1990,Stratovolcano,Holocene,vol-red
Antipodes Island,New Zealand,-49.683,178.767,402,Pyroclastic cones,Holocene?,vol-red
Antisana,Ecuador,-0.481,-78.141,5753,Stratovolcano,Historical,vol-red
Antofagasta de la Sierra,Argentina,-26.083,-67.5,4000,Scoria cones,Holocene,vol-red
Antofagasta de la Sierra,Argentina,-26.08,-67.5,4000,Scoria cone,Holocene,vol-red
Antofalla,Argentina,-25.53,-68,6100,Stratovolcano,Holocene,vol-red
Antuco,Chile,-37.406,-71.349,2979,Stratovolcano,Historical,vol-red
Aoba,Vanuatu,-15.4,167.83,1496,Shield volcano,Historical,vol-red
Aoga-shima,Japan,32.45,139.77,423,Stratovolcano,Historical,vol-red
Apaneca Range,El Salvador,13.891,-89.786,2036,Stratovolcano,Holocene,vol-red
Apastepeque Field,El Salvador,13.72,-88.77,700,Volcanic field,Holocene,vol-red
Apo,Philippines,6.987,125.273,2954,Stratovolcano,Fumarolic,vol-red
Apoyeque,Nicaragua,12.242,-86.342,518,Pyroclastic shield,Radiocarbon,vol-red
Aracar,Argentina,-24.27,-67.77,6082,Stratovolcano,Historical,vol-red
Aracar,Argentina,-24.25,-67.767,6082,Stratovolcano,Uncertain,vol-red
Aragats,Armenia,40.55,44.12,4090,Stratovolcano,Holocene,vol-red
"Aramuaca, Laguna",El Salvador,13.428,-88.105,180,Maar,Holocene,vol-red
Ararat,Turkey,39.7,44.28,5165,Stratovolcano,Holocene,vol-red
Arayat,Philippines,15.2,120.742,1026,Stratovolcano,Holocene,vol-red
Ardoukoba,Djibouti,11.58,42.47,298,Fissure vent,Historical,vol-red
Arenal,Costa Rica,10.463,-84.703,1657,Stratovolcano,Historical,vol-red
Arenales,Chile,-47.2,-73.483,3437,Stratovolcano,Historical,vol-red
"Arhab, Harra of",Yemen,15.63,44.08,3100,Volcanic field,Historical,vol-red
Arjuno-Welirang,Indonesia,-7.725,112.58,3339,Stratovolcano,Historical,vol-red
Arshan,China,47.5,120.7,,Cinder cones,Radiocarbon,vol-red
Asama,Japan,36.4,138.53,2560,Complex volcano,Historical,vol-red
Asavyo,Ethiopia,13.07,41.6,1200,Shield volcano,Holocene,vol-red
Ascension,Atlantic Ocean,-7.95,-14.37,858,Stratovolcano,Holocene,vol-red
Askja,Iceland,65.03,-16.75,1516,Stratovolcano,Historical,vol-red
Aso,Japan,32.88,131.1,1592,Caldera,Historical,vol-red
Assab Volc Field,Eritrea,12.95,42.43,987,Volcanic field,Holocene,vol-red
Asuncion,United States,19.67,145.4,857,Stratovolcano,Historical,vol-red
Atacazo,Ecuador,-0.353,-78.617,4463,Stratovolcano,Radiocarbon,vol-red
Atakor Volc Field,Algeria,23.333,5.833,2918,Scoria cones,Holocene,vol-red
Atitlan,Guatemala,14.583,-91.186,3535,Stratovolcano,Historical,vol-red
Atka,United States,52.38,-174.15,1533,Stratovolcano,Historical,vol-red
Atlasova,Russia,57.97,160.65,1764,Shield volcano,Holocene,vol-red
"Atlixcos, Cerro Los",Mexico,19.809,-96.526,800,Shield volcano,Holocene,vol-red
Atsonupuri,Russia,44.804,147.13,1205,Stratovolcano,Historical,vol-red
"Atuel, Caldera del",Argentina,-34.65,-70.05,5189,Caldera,Holocene,vol-red
Auckland Field,New Zealand,-36.9,174.87,260,Volcanic field,Radiocarbon,vol-red
Augustine,United States,59.37,-153.42,1252,Lava dome,Historical,vol-red
Avachinsky,Russia,53.255,158.83,2741,Stratovolcano,Historical,vol-red
Awu,Indonesia,3.67,125.5,1320,Stratovolcano,Historical,vol-red
Axial Seamount,Pacific Ocean,45.95,-130,-1500,Submarine volcano,Historical,vol-red
Ayelu,Ethiopia,10.082,40.702,2145,Stratovolcano,Holocene,vol-red
"Azufral, Volcan",Colombia,1.08,-77.68,4070,Stratovolcano,Radiocarbon,vol-red
"Azul, Cerro",Ecuador,-0.9,-91.42,1690,Shield volcano,Historical,vol-red
"Azul, Cerro [Quizapu]",Chile,-35.653,-70.761,3788,Stratovolcano,Historical,vol-red
"Azul, Volcan",Nicaragua,12.53,-83.87,201,Cinder cone,Holocene,vol-red
Azuma,Japan,37.73,140.25,2024,Stratovolcano,Historical,vol-red
Babuyan Claro,Philippines,19.523,121.94,1180,Stratovolcano,Historical,vol-red
Bachelor,United States,43.979,-121.688,2763,Stratovolcano,Tephrochronology,vol-red
Bagana,Papua New Guinea,-6.14,155.195,1750,Lava cone,Historical,vol-red
Bakenin,Russia,53.905,158.07,2278,Stratovolcano,Tephrochronology,vol-red
Baker,United States,48.786,-121.82,3285,Stratovolcano,Historical,vol-red
"Bal Haf, Harra of",Yemen,14.05,48.33,233,Volcanic field,Holocene,vol-red
Balatocan,Philippines,8.8,124.92,2450,Compound volcano,Fumarolic,vol-red
Balbi,Papua New Guinea,-5.83,154.98,2715,Stratovolcano,Holocene,vol-red
Bald Knoll,United States,37.328,-112.408,2135,Cinder cone,Holocene,vol-red
Baluan,United States,-2.57,147.28,254,Stratovolcano,Holocene,vol-red
Baluran,Indonesia,-7.85,114.37,1247,Stratovolcano,Holocene,vol-red
Balut,Philippines,5.4,125.375,852,Stratovolcano,Holocene,vol-red
Bam,Papua New Guinea,-3.6,144.85,685,Stratovolcano,Historical,vol-red
Bamus,Papua New Guinea,-5.2,151.23,2248,Stratovolcano,Anthropology,vol-red
Banahao,Philippines,14.07,121.48,2158,Complex volcano,Holocene,vol-red
Banda Api,Pacific Ocean,-4.525,129.871,640,Caldera,Historical,vol-red
Bandai,Japan,37.6,140.08,1819,Stratovolcano,Historical,vol-red
Banua Wuhu,Indonesia,3.138,125.491,-5,Submarine volcano,Historical,vol-red
Baransky,Russia,45.1,148.02,1132,Stratovolcano,Historical,vol-red
Barcena,Mexico,19.3,-110.82,332,Cinder cone,Historical,vol-red
Bardarbunga,Iceland,64.63,-17.53,2000,Stratovolcano,Historical,vol-red
Barkhatnaya Sopka,Russia,52.823,158.27,870,Lava dome,Tephrochronology,vol-red
Barren Island,India,12.292,93.875,354,Stratovolcano,Historical,vol-red
"Barrier, The",Kenya,2.32,36.57,1032,Shield volcano,Historical,vol-red
Baru,Panama,8.8,-82.558,3477,Complex volcano,Historical,vol-red
Barva,Costa Rica,10.135,-84.1,2906,Complex volcano,Tephrochronology,vol-red
Bas Dong Nai,Vietnam,10.8,107.2,392,Volcanic field,Holocene,vol-red
Batur,Indonesia,-8.242,115.375,1717,Caldera,Historical,vol-red
"Bayo, Cerro",Argentina,-25.42,-68.58,5401,Complex volcano,Holocene,vol-red
Bayonnaise Rocks,Japan,31.92,139.92,10,Submarine volcano,Historical,vol-red
Bayuda Volc Field,Sudan,18.33,32.75,0,Cinder cone,Radiocarbon,vol-red
Bazman,Iran,28.07,60,3490,Stratovolcano,Fumarolic,vol-red
Behm Canal-Rudyerd Bay,United States,55.32,-131.05,500,Cinder cone,Holocene,vol-red
Belenkaya,Russia,51.75,157.27,892,Stratovolcano,Holocene,vol-red
Belirang-Beriti,Indonesia,-2.82,102.18,1958,Compound volcano,Fumarolic,vol-red
Belknap,United States,44.285,-121.841,2095,Shield volcano,Radiocarbon,vol-red
Bely,Russia,57.88,160.53,2080,Shield volcano,Holocene,vol-red
Berlin,Antarctica,-76.05,-136,3478,Shield volcano,Fumarolic,vol-red
Beru,Ethiopia,8.95,39.75,1100,Volcanic field,Holocene,vol-red
Berutarube,Russia,44.47,146.93,1220,Stratovolcano,Holocene,vol-red
Besar,Indonesia,-4.43,103.67,1899,Stratovolcano,Historical,vol-red
Bezymianny,Russia,55.978,160.587,2882,Stratovolcano,Historical,vol-red
Bibinoi,Indonesia,-0.78,127.72,900,Stratovolcano,Holocene,vol-red
Big Cave,United States,40.955,-121.365,1259,Shield volcano,Holocene,vol-red
Bilate River Field,Ethiopia,7.07,38.1,1700,Maar,Holocene,vol-red
Biliran,Philippines,11.523,124.534,1187,Compound volcano,Historical,vol-red
Billy Mitchell,Papua New Guinea,-6.092,155.225,1544,Pyroclastic shield,Radiocarbon,vol-red
Bir Borhut,Yemen,15.55,50.63,0,Volcanic field,Holocene,vol-red
"Birk, Harrat al",Saudi Arabia,18.367,41.633,381,Volcanic field,Holocene,vol-red
Bishoftu Volc Field,Ethiopia,8.78,38.98,1850,Fissure vent,Holocene,vol-red
Biu Plateau,Nigeria,10.75,12,0,Volcanic field,Holocene,vol-red
Black Peak,United States,56.53,-158.8,1032,Stratovolcano,Radiocarbon,vol-red
Black Rock Desert,United States,38.97,-112.5,1800,Volcanic field,Radiocarbon,vol-red
"Blanca, Loma",Chile,-36.286,-71.009,2268,Stratovolcano,Holocene,vol-red
Bliznets,Russia,56.97,159.78,1244,Stratovolcano,Holocene,vol-red
Bliznetsy,Russia,57.35,161.367,265,Lava cone,Radiocarbon,vol-red
Blue Lake Crater,United States,44.42,-121.77,1230,Maar,Radiocarbon,vol-red
Blup Blup,Papua New Guinea,-3.508,144.62,402,Stratovolcano,Holocene,vol-red
Bobrof,United States,51.9,-177.43,738,Stratovolcano,Holocene,vol-red
Bogatyr Ridge,Russia,44.83,147.37,1634,Stratovolcano,Holocene,vol-red
Bogoslof,United States,53.93,-168.03,101,Submarine volcano,Historical,vol-red
Boisa,Papua New Guinea,-3.994,144.963,240,Stratovolcano,Holocene,vol-red
Bola,Papua New Guinea,-5.15,150.03,1155,Stratovolcano,Holocene,vol-red
Bolshe-Bannaya,Russia,52.9,157.78,1200,Lava dome,Holocene,vol-red
Bolshoi Payalpan,Russia,55.88,157.78,1906,Shield volcano,Holocene,vol-red
Bolshoi Semiachik,Russia,54.32,160.02,1720,Stratovolcano,Radiocarbon,vol-red
Bolshoi-Kekuknaysky,Russia,56.47,157.8,1401,Shield volcano,Holocene,vol-red
Bombalai,Malaysia,4.4,117.88,531,Pyroclastic cone,Holocene,vol-red
Bona-Churchill,United States,61.38,-141.75,5005,Stratovolcano,Radiocarbon,vol-red
Boomerang Seamount,Antarctica,-37.721,77.825,-650,Submarine volcano,Historical,vol-red
Bora-Bericcio Complex,Ethiopia,8.27,39.03,2285,Pumice cone,Holocene,vol-red
Borale Ale,Ethiopia,13.725,40.6,668,Stratovolcano,Holocene,vol-red
Borawli,Ethiopia,13.3,40.98,812,Stratovolcano,Holocene,vol-red
Borawli Complex,Ethiopia,11.63,41.45,875,Lava dome,Holocene,vol-red
Boset-Bericha,Ethiopia,8.558,39.475,2447,Stratovolcano,Holocene,vol-red
Bouvet,Bouvet I.,-54.42,3.35,780,Shield volcano,Magnetism,vol-red
Bratan,Indonesia,-8.28,115.13,2276,Caldera,Holocene,vol-red
Brava,Cape Verde,14.85,-24.72,900,Stratovolcano,Holocene,vol-red
"Bravo, Cerro",Colombia,5.092,-75.3,4000,Stratovolcano,Radiocarbon,vol-red
"Bravo, Cerro",Colombia,5.092,-75.3,4000,Stratovolcano,Radiocarbon,vol-red
Brennisteinsfjoll,Iceland,63.92,-21.83,626,Crater rows,Historical,vol-red
Bridge River Cones,Canada,50.8,-123.4,2500,Volcanic field,Holocene,vol-red
Bridgeman Island,Antarctica,-62.05,-56.75,240,Stratovolcano,Uncertain,vol-red
Brimstone Island,New Zealand,-30.23,-178.92,-2000,Submarine volcano,Uncertain,vol-red
Bristol Island,Antarctica,-59.03,-26.58,1100,Stratovolcano,Historical,vol-red
Brothers,New Zealand,-34.875,179.075,-1350,Submarine volcano,Fumarolic,vol-red
Brushy Butte,United States,41.178,-121.443,1174,Shield volcano,Holocene,vol-red
Buckle Island,Antarctica,-66.8,163.25,1239,Stratovolcano,Historical,vol-red
Bud Dajo,Philippines,5.95,121.07,440,Pyroclastic cone,Historical,vol-red
Bufumbira,Uganda,-1.23,29.72,2440,Cinder cone,Holocene,vol-red
Buldir,United States,52.37,175.98,656,Stratovolcano,Holocene,vol-red
Bulusan,Philippines,12.77,124.05,1565,Stratovolcano,Historical,vol-red
Bunyaruguru Field,Uganda,-0.2,30.08,1554,Explosion crater,Holocene,vol-red
"Burney, Monte",Chile,-52.33,-73.4,1758,Stratovolcano,Historical,vol-red
Bus-Obo,Mongolia,47.12,109.08,1162,Cinder cone,Holocene,vol-red
Butajiri-Silti Field,Ethiopia,8.05,38.35,2281,Fissure vent,Holocene,vol-red
Buzzard Creek,United States,64.07,-148.42,830,Tuff rings,Radiocarbon,vol-red
Cabalian,Philippines,10.287,125.22,945,Stratovolcano,Holocene,vol-red
Caburga,Chile,-39.2,-71.83,995,Cinder cone,Tephrochronology,vol-red
Cagua,Philippines,18.222,122.123,1133,Stratovolcano,Holocene,vol-red
Calabozos,Chile,-35.558,-70.496,3508,Caldera,Holocene,vol-red
Calatrava Volc Field,Spain,38.867,-4.017,1117,Pyroclastic cones,Radiocarbon,vol-red
Calayo,Philippines,7.877,125.068,646,Tuff cone,Historical,vol-red
Calbuco,Chile,-41.326,-72.614,2003,Stratovolcano,Historical,vol-red
Callaqui,Chile,-37.92,-71.45,3164,Stratovolcano,Historical,vol-red
"Cameroon, Mt.",Cameroon,4.203,9.17,4095,Stratovolcano,Historical,vol-red
Camiguin de Babuyanes,Philippines,18.83,121.86,712,Stratovolcano,Historical,vol-red
Campi Flegrei,Italy,40.827,14.139,458,Caldera,Historical,vol-red
Campi Flegrei Mar Sicilia,Italy,37.1,12.7,-8,Submarine volcanoes,Historical,vol-red
Candlemas Island,Antarctica,-57.08,-26.67,550,Stratovolcano,Historical,vol-red
Canlaon,Philippines,10.412,123.132,2435,Stratovolcano,Historical,vol-red
Carlisle,United States,52.9,-170.05,1620,Stratovolcano,Historical,vol-red
Carran-Los Venados,Chile,-40.35,-72.07,1114,Pyroclastic cone,Historical,vol-red
Carrizozo,United States,33.78,-105.93,1731,Cinder cone,Holocene,vol-red
"Casiri, Nevados",Peru,-17.47,-69.82,5650,Stratovolcano,Holocene,vol-red
Cayambe,Ecuador,0.029,-77.986,5790,Compound volcano,Historical,vol-red
Cayambe,Ecuador,0.029,-77.986,5790,Compound volcano,Historical,vol-red
Cayute-La Vigueria,Chile,-41.25,-72.27,506,Pyroclastic cone,Holocene,vol-red
Cayutu‚-La Viguer¡a,Chile,-41.25,-72.267,506,Pyroclastic cones,Tephrochronology,vol-red
Ceboruco,Mexico,21.125,-104.508,2280,Stratovolcano,Historical,vol-red
"Cendres, Ile des",Vietnam,10.158,109.014,-20,Submarine volcanoes,Historical,vol-red
Central Island,Kenya,3.5,36.042,550,Stratovolcano,Holocene,vol-red
Cereme,Indonesia,-6.892,108.4,3078,Stratovolcano,Historical,vol-red
Ch'uga-ryong,North Korea,38.33,127.33,452,Shield volcano,Holocene,vol-red
Chacana,Ecuador,-0.375,-78.25,4643,Caldera,Historical,vol-red
"Chachani, Nevado",Peru,-16.191,-71.53,6057,Stratovolcano,Holocene,vol-red
"Chachani, Nevado",Peru,-16.191,-71.53,6057,Stratovolcano,Holocene?,vol-red
Chagulak,United States,52.57,-171.13,1142,Stratovolcano,Holocene,vol-red
Chaine des Puys,France,45.775,2.967,1464,Cinder cone,Radiocarbon,vol-red
Chaiten,Chile,-42.833,-72.646,962,Caldera,Holocene,vol-red
Changbaishan,North Korea,41.98,128.08,2744,Stratovolcano,Historical,vol-red
"Chapulul, Cerro",Chile,-38.37,-71.08,2143,Cinder cone,Holocene,vol-red
Cherny,Russia,56.82,159.67,1778,Stratovolcano,Holocene,vol-red
Cherpuk Group,Russia,55.55,157.467,1868,Pyroclastic cones,Radiocarbon,vol-red
Chichinautzin,Mexico,19.08,-99.13,3930,Volcanic field,Radiocarbon,vol-red
"Chichon, El",Mexico,17.36,-93.228,1150,Tuff cone,Historical,vol-red
Chiginagak,United States,57.13,-157,2075,Stratovolcano,Historical,vol-red
Chikurachki,Russia,50.325,155.458,1816,Stratovolcano,Historical,vol-red
Chiliques,Chile,-23.58,-67.7,5778,Stratovolcano,Holocene,vol-red
Chiliques,Chile,-23.583,-67.7,5778,Stratovolcano,Holocene?,vol-red
"Chillan, Nevados de",Chile,-36.863,-71.377,3212,Stratovolcano,Historical,vol-red
Chimborazo,Ecuador,-1.464,-78.815,6310,Stratovolcano,Radiocarbon,vol-red
Chinameca,El Salvador,13.475,-88.32,1228,Stratovolcano,Holocene,vol-red
Chingo Volc Field,Guatemala,14.12,-89.73,1775,Stratovolcano,Holocene,vol-red
Chiquimula Volc Field,Guatemala,14.83,-89.55,1192,Cinder cone,Holocene,vol-red
Chiracha,Ethiopia,6.65,38.12,1650,Stratovolcano,Holocene,vol-red
Chirinkotan,Russia,48.98,153.48,724,Stratovolcano,Historical,vol-red
Chirip,Russia,45.38,147.92,1589,Stratovolcano,Historical,vol-red
Chirpoi,Russia,46.525,150.875,742,Caldera,Historical,vol-red
Chokai,Japan,39.08,140.03,2237,Stratovolcano,Historical,vol-red
Chyulu Hills,Kenya,-2.68,37.88,2188,Volcanic field,Anthropology,vol-red
"Ciguatepe, Cerro El",Nicaragua,12.53,-86.142,603,Stratovolcano,Holocene,vol-red
Cinnamon Butte,United States,43.241,-122.108,1956,Cinder cone,Holocene,vol-red
"Cinotepec, Cerro",El Salvador,14.02,-89.25,665,Volcanic field,Holocene,vol-red
Clark,New Zealand,-36.446,177.839,-860,Submarine volcano,Fumarolic,vol-red
Clear Lake,United States,38.97,-122.77,1439,Volcanic field,Holocene,vol-red
Cleft Segment,Pacific Ocean,44.83,-130.3,-2140,Submarine volcano,Historical,vol-red
Cleveland,United States,52.82,-169.95,1730,Stratovolcano,Historical,vol-red
Coatepeque Caldera,El Salvador,13.87,-89.55,746,Caldera,Holocene,vol-red
"Cochons, Ile Aux",Indian Ocean,-46.1,50.23,775,Stratovolcano,Holocene,vol-red
Cofre de Perote,Mexico,19.492,-97.15,4282,Shield volcano,Radiocarbon,vol-red
Colachi,Chile,-23.23,-67.65,5631,Stratovolcano,Holocene,vol-red
Coleman Seamount,Solomon Is.,-8.83,157.17,0,Submarine volcano,Holocene,vol-red
Colima,Mexico,19.514,-103.62,3850,Stratovolcano,Historical,vol-red
"Colluma, Cerro",Bolivia,-18.5,-68.07,3876,Maar,Holocene,vol-red
Colo [Una Una],Indonesia,-0.17,121.608,507,Stratovolcano,Historical,vol-red
Comondu-La Purisima,Mexico,26,-111.92,780,Volcanic field,Holocene,vol-red
Concepcion,Nicaragua,11.538,-85.622,1700,Stratovolcano,Historical,vol-red
Conchagua,El Salvador,13.277,-87.853,1250,Stratovolcano,Uncertain,vol-red
Conchaguita,El Salvador,13.22,-87.765,550,Stratovolcano,Historical,vol-red
"Cook, Isla",Chile,-54.95,-70.27,150,Lava dome,Holocene,vol-red
Copahue,Chile,-37.85,-71.17,2965,Stratovolcano,Historical,vol-red
Copiapo,Chile,-27.3,-69.13,6052,Stratovolcano,Uncertain,vol-red
Corbetti Caldera,Ethiopia,7.18,38.43,2320,Caldera,Holocene,vol-red
Corcovado,Chile,-43.18,-72.8,2300,Stratovolcano,Historical,vol-red
Cordon Chalviri,Chile,-23.85,-67.62,5623,Stratovolcano,Holocene,vol-red
Cordon de Puntas Negras,Chile,-23.75,-67.53,5852,Stratovolcano,Holocene,vol-red
Cordon del Azufre,Argentina,-25.33,-68.52,5463,Complex volcano,Holocene,vol-red
Coronado,Mexico,29.08,-113.513,440,Stratovolcano,Fumarolic,vol-red
Coropuna,Peru,-15.52,-72.65,6377,Stratovolcano,Holocene,vol-red
Corvo,Portugal,39.67,-31.07,715,Stratovolcano,Holocene,vol-red
Cosiguina,Nicaragua,12.98,-87.57,872,Stratovolcano,Historical,vol-red
Coso Volc Field,United States,36.03,-117.82,2400,Lava dome,Holocene,vol-red
Cotopaxi,Ecuador,-0.677,-78.436,5911,Stratovolcano,Historical,vol-red
Crater Basalt Volc Field,Argentina,-42.017,-70.183,1359,Cinder cones,Holocene,vol-red
Crater Lake,United States,42.93,-122.12,2487,Caldera,Radiocarbon,vol-red
Crater Mountain,Papua New Guinea,-6.58,145.08,3233,Stratovolcano,Holocene,vol-red
Craters of the Moon,United States,43.42,-113.5,2005,Cinder cone,Radiocarbon,vol-red
Crow Lagoon,Canada,54.7,-130.23,335,Pyroclastic cone,Holocene,vol-red
Cu-Lao Re Group,Vietnam,15.38,109.12,181,Volcanic field,Holocene,vol-red
Cuicocha,Ecuador,0.308,-78.364,3246,Caldera,Radiocarbon,vol-red
Cuilapa-Barbarena,Guatemala,14.333,-90.4,1454,Volcanic field,Holocene,vol-red
Cuilapa-Barbarena,Guatemala,14.33,-90.4,1454,Volcanic field,Holocene,vol-red
Cumbal,Colombia,0.98,-77.88,4764,Stratovolcano,Historical,vol-red
"Cumbres, Las",Mexico,19.15,-97.27,3940,Stratovolcano,Radiocarbon,vol-red
Curacoa,Tonga,-15.62,-173.67,-33,Submarine volcano,Historical,vol-red
Curacoa,Tonga,-15.617,-173.667,-33,Submarine volcano,Historical,vol-red
Curtis Island,New Zealand,-30.542,-178.561,137,Submarine volcano,Uncertain,vol-red
"C¢ndor, Cerro el",Argentina,-26.617,-68.35,6532,Stratovolcano,Holocene,vol-red
Dabbahu,Ethiopia,12.6,40.48,1442,Stratovolcano,Holocene,vol-red
Dabbayra,Ethiopia,12.38,40.07,1302,Shield volcano,Holocene,vol-red
Dacht-I-Navar Group,Afghanistan,33.95,67.92,3800,Lava dome,Holocene,vol-red
Daikoku,Japan,21.324,144.194,-323,Submarine volcano,Fumarolic,vol-red
Daisetsu,Japan,43.68,142.88,2290,Stratovolcano,Tephrochronology,vol-red
Dakataua,Papua New Guinea,-5.056,150.108,400,Caldera,Anthropology,vol-red
Dalaffilla,Ethiopia,13.792,40.55,613,Stratovolcano,Holocene,vol-red
Dallol,Ethiopia,14.242,40.3,-48,Explosion crater,Historical,vol-red
Dama Ali,Ethiopia,11.28,41.63,1068,Shield volcano,Historical,vol-red
Damavand,Iran,35.951,52.109,5670,Stratovolcano,Holocene,vol-red
Dana,United States,55.62,-161.22,1354,Stratovolcano,Radiocarbon,vol-red
Danau Complex,Indonesia,-6.2,105.97,1778,Caldera,Holocene,vol-red
Dar-Alages,Armenia,39.7,45.542,3329,Unknown,Holocene,vol-red
Dariganga Volc Field,Mongolia,45.33,114,1778,Cinder cone,Holocene,vol-red
"Darwin, Volcan",Ecuador,-0.18,-91.28,1330,Shield volcano,Holocene,vol-red
"Daun, Bukit",Indonesia,-3.38,102.37,2467,Stratovolcano,Fumarolic,vol-red
Davidof,United States,51.97,178.33,328,Stratovolcano,Holocene,vol-red
Davis Lake,United States,43.57,-121.82,2163,Volcanic field,Radiocarbon,vol-red
Dawson Strait Group,Papua New Guinea,-9.62,150.88,500,Volcanic field,Hydration Rind,vol-red
Deception Island,Antarctica,-62.97,-60.65,576,Caldera,Historical,vol-red
Demon,Russia,45.5,148.85,1205,Stratovolcano,Holocene,vol-red
Dempo,Indonesia,-4.03,103.13,3173,Stratovolcano,Historical,vol-red
Denison,United States,58.42,-154.45,2318,Stratovolcano,Uncertain,vol-red
Descabezado Grande,Chile,-35.58,-70.75,3953,Stratovolcano,Historical,vol-red
Devils Garden,United States,43.512,-120.861,1698,Volcanic field,Holocene,vol-red
Dgida Basin,Russia,50.52,103.25,1500,Cinder cone,Holocene,vol-red
"Dhamar, Harras of",Yemen,14.57,44.67,3500,Volcanic field,Historical,vol-red
"Diable, Morne Au",Dominica,15.62,-61.45,861,Stratovolcano,Fumarolic,vol-red
"Diablotins, Morne",Dominica,15.5,-61.42,1430,Stratovolcano,Holocene,vol-red
Diamond Craters,United States,43.1,-118.75,1435,Volcanic field,Holocene,vol-red
Didicas,Philippines,19.077,122.202,244,Compound volcano,Historical,vol-red
Dieng Volc Complex,Indonesia,-7.2,109.92,2565,Complex volcano,Historical,vol-red
Diky Greben,Russia,51.43,157,1070,Lava dome,Radiocarbon,vol-red
Dofen,Ethiopia,9.35,40.13,1151,Stratovolcano,Holocene,vol-red
Doma Peaks,Papua New Guinea,-5.9,143.15,3568,Stratovolcano,Holocene,vol-red
Domuyo,Argentina,-36.63,-70.42,4709,Stratovolcano,Holocene,vol-red
Don Joao de Castro Bank,Portugal,38.23,-26.63,-14,Submarine volcano,Historical,vol-red
Dona Juana,Colombia,1.47,-76.92,4150,Stratovolcano,Historical,vol-red
Dotsero,United States,39.65,-107.03,2230,Maar,Radiocarbon,vol-red
Douglas,United States,58.87,-153.55,2140,Stratovolcano,Fumarolic,vol-red
Doyo Seamount,Japan,27.683,140.8,-860,Submarine volcano,Fumarolic,vol-red
Dubbi,Eritrea,13.58,41.808,1625,Stratovolcano,Historical,vol-red
Dukono,Indonesia,1.68,127.88,1185,Complex volcano,Historical,vol-red
Duncan Canal,United States,56.5,-133.1,15,Unknown,Holocene,vol-red
Durango Volc Field,Mexico,24.15,-104.45,2075,Cinder cone,Holocene,vol-red
Dutton,United States,55.18,-162.27,1506,Stratovolcano,Holocene,vol-red
Dzenzursky,Russia,53.637,158.922,2155,Compound volcano,Holocene,vol-red
E-san,Japan,41.8,141.17,618,Stratovolcano,Historical,vol-red
Eagle Lake Field,United States,40.63,-120.83,1652,Fissure vent,Holocene,vol-red
Easter Island,Chile,-27.15,-109.383,511,Shield volcanoes,Holocene,vol-red
Eastern Gemini Seamount,Pacific Ocean,-20.98,170.28,-80,Submarine volcano,Historical,vol-red
Ebeko,Russia,50.68,156.02,1156,Somma volcano,Historical,vol-red
Ebulobo,Indonesia,-8.808,121.18,2124,Stratovolcano,Historical,vol-red
"Eburru, Ol Doinyo",Kenya,-0.63,36.23,2856,Complex volcano,Holocene,vol-red
"Ecuador, Volcan",Ecuador,-0.02,-91.546,790,Shield volcano,Holocene,vol-red
Edgecumbe,United States,57.05,-135.75,976,Stratovolcano,Radiocarbon,vol-red
Edziza,Canada,57.72,-130.63,2786,Stratovolcano,Radiocarbon,vol-red
Eggella,Russia,56.57,158.52,1046,Shield volcano,Holocene,vol-red
Egmont,New Zealand,-39.3,174.07,2518,Stratovolcano,Radiocarbon,vol-red
Egon,Indonesia,-8.67,122.45,1703,Stratovolcano,Historical,vol-red
Ekarma,Russia,48.958,153.93,1170,Stratovolcano,Historical,vol-red
Elbrus,Russia,43.33,42.45,5633,Stratovolcano,Tephrochronology,vol-red
Elmenteita Badlands,Kenya,-0.52,36.27,2126,Pyroclastic cone,Holocene,vol-red
Elovsky,Russia,57.53,160.53,1381,Shield volcano,Holocene,vol-red
Emmons Lake,United States,55.33,-162.07,1465,Caldera,Holocene,vol-red
Emperor of China,Pacific Ocean,-6.62,124.22,-2850,Submarine volcano,Uncertain,vol-red
Emuruangogolak,Kenya,1.5,36.33,1328,Shield volcano,Radiocarbon,vol-red
Endeavour Ridge,Pacific Ocean,47.95,-129.1,-2400,Submarine volcano,Historical,vol-red
Epi,Vanuatu,-16.68,168.37,833,Stratovolcano,Historical,vol-red
Erciyes Dagi,Turkey,38.52,35.48,3916,Stratovolcano,Holocene,vol-red
Erebus,Antarctica,-77.53,167.17,3794,Stratovolcano,Historical,vol-red
Erta Ale,Ethiopia,13.6,40.67,613,Shield volcano,Historical,vol-red
Es Safa,Syria,33.08,37.15,979,Volcanic field,Historical,vol-red
Escanaba Segment,Pacific Ocean,40.983,-127.5,-1700,Submarine volcano,Uranium-series,vol-red
"Escorial, Cerro",Argentina,-25.08,-68.37,5447,Stratovolcano,Holocene,vol-red
Esjufjoll,Iceland,64.27,-16.65,1760,Stratovolcano,Historical,vol-red
Esmeralda Bank,United States,15,145.25,-43,Submarine volcano,Fumarolic,vol-red
Espenberg,United States,66.35,-164.33,243,Volcanic field,Tephrochronology,vol-red
"Est, Ile de l'",French Southern & Antarctic Lands,-46.43,52.2,1090,Stratovolcano,Holocene,vol-red
Esteli,Nicaragua,13.17,-86.4,899,Fissure vent,Holocene,vol-red
Etna,Italy,37.734,15.004,3350,Stratovolcano,Historical,vol-red
Eyjafjallajokull,Iceland,63.63,-19.62,1666,Stratovolcano,Historical,vol-red
Falcon Island,Tonga,-20.32,-175.42,-17,Submarine volcano,Historical,vol-red
Farallon de Pajaros,United States,20.53,144.9,360,Stratovolcano,Historical,vol-red
Fayal,Portugal,38.6,-28.73,1043,Stratovolcano,Historical,vol-red
Fedotych,Russia,57.13,160.4,965,Shield volcano,Holocene,vol-red
Fentale,Ethiopia,8.975,39.93,2007,Stratovolcano,Historical,vol-red
Fernandina,Ecuador,-0.37,-91.55,1495,Shield volcano,Historical,vol-red
"Firura, Nevados",Peru,-15.23,-72.63,5498,Stratovolcano,Holocene,vol-red
Fisher,United States,54.67,-164.35,1094,Stratovolcano,Historical,vol-red
Flores,Guatemala,14.3,-90,1600,Volcanic field,Holocene,vol-red
Flores,Portugal,39.4,-31.17,915,Stratovolcano,Radiocarbon,vol-red
Fogo,Cape Verde,14.95,-24.35,2829,Stratovolcano,Historical,vol-red
Fonualei,Tonga,-18.02,-174.325,200,Stratovolcano,Historical,vol-red
Forecast Seamount,United States,13.4,143.917,,Submarine volcano,Fumarolic,vol-red
Fort Portal Field,Uganda,0.7,30.25,1524,Tuff cone,Holocene,vol-red
Fort Selkirk,Canada,62.93,-137.38,1239,Volcanic field,Holocene,vol-red
Four Craters Lava Field,United States,43.361,-120.669,1501,Volcanic field,Holocene,vol-red
"Fournaise, Piton de la",Reunion,-21.229,55.713,2631,Shield volcano,Historical,vol-red
Fourpeaked,United States,58.77,-153.68,2104,Stratovolcano,Uncertain,vol-red
Fremrinamur,Iceland,65.43,-16.65,939,Stratovolcano,Tephrochronology,vol-red
Frosty,United States,55.07,-162.82,1920,Stratovolcano,Holocene,vol-red
Fuego,Guatemala,14.473,-90.88,3763,Stratovolcano,Historical,vol-red
Fuerteventura,Spain,28.358,-14.02,529,Fissure vent,Holocene,vol-red
Fuji,Japan,35.35,138.73,3776,Stratovolcano,Historical,vol-red
Fukue-jima,Japan,32.653,128.851,317,Shield volcanoes,Tephrochronology,vol-red
Fukujin,Japan,21.925,143.442,-217,Submarine volcano,Historical,vol-red
Fukutoku-okanoba,Japan,24.28,141.52,-14,Submarine volcano,Historical,vol-red
Furnas,Portugal,37.77,-25.32,805,Stratovolcano,Historical,vol-red
Fuss Peak,Russia,50.27,155.25,1772,Stratovolcano,Historical,vol-red
Gabillema,Ethiopia,11.08,41.27,1459,Stratovolcano,Holocene,vol-red
Gada Ale,Ethiopia,13.975,40.408,287,Stratovolcano,Holocene,vol-red
Galapagos Rift,Pacific Ocean,0.792,-86.15,-2430,Submarine volcano,Historical,vol-red
Galapagos Rift,Pacific Ocean,0.792,-86.15,-2430,Submarine volcano,Historical,vol-red
Galeras,Colombia,1.22,-77.37,4276,Complex volcano,Historical,vol-red
Gallego,Solomon Is.,-9.35,159.73,1000,Volcanic field,Holocene,vol-red
Galunggung,Indonesia,-7.25,108.05,2168,Stratovolcano,Historical,vol-red
Gamalama,Indonesia,0.8,127.325,1715,Stratovolcano,Historical,vol-red
Gamchen,Russia,54.973,160.702,2576,Complex volcano,Holocene,vol-red
Gamkonora,Indonesia,1.375,127.52,1635,Stratovolcano,Historical,vol-red
Garbuna Group,Papua New Guinea,-5.45,150.03,564,Stratovolcano,Holocene,vol-red
Gareloi,United States,51.78,-178.8,1573,Stratovolcano,Historical,vol-red
Garibaldi Lake,Canada,49.92,-123.03,2316,Volcanic field,Holocene,vol-red
"Garibaldi, Mt.",Canada,49.85,-123,2678,Stratovolcano,Radiocarbon,vol-red
Garove,Papua New Guinea,-4.692,149.5,368,Stratovolcano,Holocene,vol-red
Garua Harbour,Papua New Guinea,-5.269,150.088,565,Volcanic field,Holocene,vol-red
Gaua,Vanuatu,-14.27,167.5,797,Stratovolcano,Historical,vol-red
Gedamsa Caldera,Ethiopia,8.35,39.18,1984,Caldera,Holocene,vol-red
Gede,Indonesia,-6.78,106.98,2958,Stratovolcano,Historical,vol-red
Genovesa,Ecuador,0.32,-89.958,64,Shield volcano,Holocene,vol-red
Geodesistoy,Russia,56.33,158.67,1170,Shield volcano,Holocene,vol-red
Giggenbach,New Zealand,-30.036,-178.713,-65,Submarine volcano,Fumarolic,vol-red
Girekol,Turkey,39.17,43.33,0,Unknown,Holocene,vol-red
Glacier Peak,United States,48.112,-121.113,3213,Stratovolcano,Tephrochronology,vol-red
"Gloria, La",Mexico,19.33,-97.25,3500,Volcanic field,Holocene,vol-red
Golden Trout Creek,United States,36.358,-118.32,2886,Volcanic field,Tephrochronology,vol-red
Golets-Tornyi Group,Russia,45.25,148.35,442,Pyroclastic cone,Holocene,vol-red
Gollu Dag,Turkey,38.25,34.57,2143,Lava dome,Holocene,vol-red
Golovnin,Russia,43.85,145.53,541,Caldera,Historical,vol-red
Goodenough,Papua New Guinea,-9.48,150.35,220,Volcanic field,Holocene,vol-red
Gordon,United States,62.13,-143.08,2755,Cinder cone,Holocene,vol-red
Gorely,Russia,52.558,158.03,1829,Caldera,Historical,vol-red
Goriaschaia Sopka,Russia,46.83,151.75,891,Stratovolcano,Historical,vol-red
Gorny Institute,Russia,57.33,160.2,2125,Stratovolcano,Holocene,vol-red
Graciosa,Portugal,39.02,-27.97,402,Stratovolcano,Holocene,vol-red
Gran Canaria,Spain,28,-15.58,1950,Fissure vent,Radiocarbon,vol-red
Great Sitkin,United States,52.08,-176.13,1740,Stratovolcano,Historical,vol-red
Griggs,United States,58.35,-155.1,2317,Stratovolcano,Holocene,vol-red
"Grille, La",Comoros,-11.47,43.33,1087,Shield volcano,Holocene,vol-red
Grimsnes,Iceland,64.03,-20.87,214,Crater rows,Tephrochronology,vol-red
Grimsvotn,Iceland,64.42,-17.33,1725,Caldera,Historical,vol-red
Groppo,Ethiopia,11.73,40.25,930,Stratovolcano,Holocene,vol-red
Grozny Group,Russia,45.02,147.87,1211,Complex volcano,Historical,vol-red
Guadalupe,Mexico,29.07,-118.28,1100,Shield volcano,Holocene,vol-red
Guagua Pichincha,Ecuador,-0.171,-78.598,4784,Stratovolcano,Historical,vol-red
Guallatiri,Chile,-18.42,-69.17,6071,Stratovolcano,Historical,vol-red
Guayaques,Bolivia,-22.88,-67.58,5598,Lava dome,Holocene,vol-red
Guazapa,El Salvador,13.9,-89.12,1438,Stratovolcano,Holocene,vol-red
Gufa,Eritrea,12.55,42.53,600,Volcanic field,Holocene,vol-red
Guguan,United States,17.32,145.85,287,Stratovolcano,Historical,vol-red
Guntur,Indonesia,-7.13,107.83,2249,Complex volcano,Historical,vol-red
Gunungapi Wetar,Pacific Ocean,-6.642,126.65,282,Stratovolcano,Historical,vol-red
Hachijo-jima,Japan,33.13,139.77,854,Stratovolcano,Historical,vol-red
Hachimantai,Japan,39.95,140.85,1614,Stratovolcano,Holocene,vol-red
Hainan Dao,China,19.7,110.1,,Pyroclastic cones,Historical,vol-red
Hakkoda Group,Japan,40.65,140.88,1585,Stratovolcano,Holocene,vol-red
Hakone,Japan,35.22,139.02,1438,Complex volcano,Radiocarbon,vol-red
Haku-san,Japan,36.15,136.78,2702,Stratovolcano,Historical,vol-red
Haleakala,United States,20.708,-156.25,3055,Shield volcano,Historical,vol-red
Halla,South Korea,33.37,126.53,1950,Shield volcano,Historical,vol-red
Hanish,Yemen,13.72,42.73,422,Shield volcano,Holocene,vol-red
Hargy,Papua New Guinea,-5.33,151.1,1148,Stratovolcano,Radiocarbon,vol-red
"Harrah, Al",Saudi Arabia,31.083,38.417,1100,Volcanic field,Holocene,vol-red
Haruj,Libya,27.25,17.5,1200,Scoria cone,Holocene,vol-red
Haruna,Japan,36.47,138.88,1449,Stratovolcano,Anthropology,vol-red
Hasan Dagi,Turkey,38.13,34.17,3253,Stratovolcano,Holocene,vol-red
Haut Dong Nai,Vietnam,11.6,108.2,1000,Volcanic field,Holocene,vol-red
Hayes,United States,61.62,-152.48,2788,Stratovolcano,Radiocarbon,vol-red
"Haylan, Jabal",Yemen,15.43,44.78,1550,Volcanic field,Anthropology,vol-red
Hayli Gubbi,Ethiopia,13.5,40.72,521,Shield volcano,Holocene,vol-red
Healy,New Zealand,-35.004,178.973,980,Submarine volcano,Radiocarbon,vol-red
Heard,Heard I. & McDonald Is.,-53.106,73.513,2745,Stratovolcano,Historical,vol-red
Heart Peaks,Canada,58.6,-131.97,2012,Shield volcano,Holocene,vol-red
Hekla,Iceland,63.98,-19.7,1491,Stratovolcano,Historical,vol-red
Hell's Half Acre,United States,43.5,-112.45,1631,Shield volcano,Radiocarbon,vol-red
Hengill,Iceland,64.18,-21.33,803,Crater rows,Radiocarbon,vol-red
Herbert,United States,52.75,-170.12,1290,Stratovolcano,Holocene,vol-red
Hertali,Ethiopia,9.78,40.33,900,Fissure vent,Holocene,vol-red
Hibok-Hibok,Philippines,9.203,124.673,1332,Stratovolcano,Historical,vol-red
Hierro,Spain,27.73,-18.03,1500,Shield volcano,Historical,vol-red
Hijiori,Japan,38.6,140.18,516,Caldera,Radiocarbon,vol-red
Hiri,Indonesia,0.88,127.32,630,Stratovolcano,Holocene,vol-red
Hiuchi,Japan,36.95,139.28,2346,Stratovolcano,Historical,vol-red
Hobicha Caldera,Ethiopia,6.78,37.83,1800,Caldera,Holocene,vol-red
Hodson,Antarctica,-56.7,-27.15,1005,Stratovolcano,Holocene,vol-red
Hofsjokull,Iceland,64.78,-18.92,1782,Subglacial volcano,Holocene,vol-red
Homa Mountain,Kenya,-0.38,34.5,1751,Complex volcano,Holocene,vol-red
Home Reef,Tonga,-18.992,-174.775,-2,Submarine volcano,Historical,vol-red
Honggeertu,China,41.47,113,1700,Cinder cone,Holocene,vol-red
Hood,United States,45.374,-121.694,3426,Stratovolcano,Historical,vol-red
Hoodoo Mountain,Canada,56.78,-131.28,1820,Subglacial volcano,Holocene,vol-red
Hornopiren,Chile,-41.874,-72.431,1572,Stratovolcano,Holocene,vol-red
Hromundartindur,Iceland,64.073,-21.202,540,Stratovolcano,Holocene?,vol-red
Hualalai,United States,19.692,-155.87,2523,Shield volcano,Historical,vol-red
Huanquihue Group,Argentina,-39.87,-71.55,1300,Pyroclastic cone,Holocene,vol-red
Huaynaputina,Peru,-16.608,-70.85,4850,Stratovolcano,Historical,vol-red
Hudson Mountains,Antarctica,-74.33,-99.42,749,Stratovolcano,Uncertain,vol-red
"Hudson, Cerro",Chile,-45.9,-72.97,1905,Stratovolcano,Historical,vol-red
Huequi,Chile,-42.377,-72.578,1318,Stratovolcano,Historical,vol-red
Huila,Colombia,2.92,-76.05,5365,Stratovolcano,Historical,vol-red
Hulubelu,Indonesia,-5.35,104.6,1040,Caldera,Fumarolic,vol-red
"Humeros, Los",Mexico,19.68,-97.45,3150,Caldera,Holocene,vol-red
Hunga Tonga-Hunga Ha'apai,Tonga,-20.57,-175.38,0,Submarine volcano,Historical,vol-red
Hunter Island,Pacific Ocean,-22.4,172.05,297,Stratovolcano,Historical,vol-red
Hutapanjang,Indonesia,-2.333,101.6,2021,Stratovolcano,Holocene,vol-red
Hutapanjang,Indonesia,-2.33,101.6,2021,Stratovolcano,Holocene,vol-red
Hydrographers Range,Papua New Guinea,-9,148.37,1915,Stratovolcano,Holocene,vol-red
Iamalele,Papua New Guinea,-9.52,150.53,200,Lava dome,Holocene,vol-red
Ibu,Indonesia,1.475,127.642,1325,Stratovolcano,Historical,vol-red
Ibusuki Volc Field,Japan,31.22,130.57,922,Caldera,Historical,vol-red
Ichinsky,Russia,55.68,157.73,3621,Stratovolcano,Holocene,vol-red
Iettunup,Russia,58.4,161.08,1340,Shield volcano,Holocene,vol-red
Igwisi Hills,Tanzania,-4.87,31.92,0,Tuff cone,Holocene,vol-red
Ijen,Indonesia,-8.058,114.242,2799,Stratovolcano,Historical,vol-red
Iktunup,Russia,58.08,160.77,2300,Shield volcano,Holocene,vol-red
Iliamna,United States,60.03,-153.08,3053,Stratovolcano,Historical,vol-red
Iliboleng,Indonesia,-8.342,123.258,1659,Stratovolcano,Historical,vol-red
Ililabalekan,Indonesia,-8.53,123.42,1018,Stratovolcano,Fumarolic,vol-red
Ilimuda,Indonesia,-8.478,122.671,1100,Stratovolcano,Fumarolic,vol-red
Iliwerung,Indonesia,-8.54,123.59,1018,Complex volcano,Historical,vol-red
Illiniza,Ecuador,-0.659,-78.714,5248,Stratovolcano,Holocene,vol-red
Ilopango,El Salvador,13.672,-89.053,450,Caldera,Historical,vol-red
Ilyinsky,Russia,51.49,157.2,1578,Stratovolcano,Historical,vol-red
Imun,Indonesia,2.15,98.93,1505,Unknown,Holocene,vol-red
Imuruk Lake,United States,65.6,-163.92,610,Shield volcano,Radiocarbon,vol-red
In Ezzane Volc Field,Algeria,23,10.833,,Volcanic field,Holocene?,vol-red
Indian Heaven,United States,45.93,-121.82,1513,Shield volcano,Radiocarbon,vol-red
Ingakslugwat Hills,United States,61.43,-164.47,190,Cinder cone,Holocene,vol-red
Inielika,Indonesia,-8.73,120.98,1559,Complex volcano,Historical,vol-red
Inierie,Indonesia,-8.875,120.95,2245,Stratovolcano,Fumarolic,vol-red
Inyo Craters,United States,37.692,-119.02,2629,Lava dome,Radiocarbon,vol-red
Ipala Volc Field,Guatemala,14.55,-89.63,1650,Stratovolcano,Holocene,vol-red
Iraya,Philippines,20.469,122.01,1009,Stratovolcano,Historical,vol-red
Irazu,Costa Rica,9.979,-83.852,3432,Stratovolcano,Historical,vol-red
Iriga,Philippines,13.457,123.457,1196,Stratovolcano,Historical,vol-red
Iriomote-jima,Japan,24.558,124,-200,Submarine volcano,Historical,vol-red
Irruputuncu,Bolivia,-20.73,-68.55,5163,Stratovolcano,Historical,vol-red
Isanotski,United States,54.75,-163.73,2446,Stratovolcano,Historical,vol-red
Isarog,Philippines,13.658,123.37,1966,Stratovolcano,Holocene,vol-red
Ischia,Italy,40.73,13.897,789,Complex volcano,Historical,vol-red
Iskut-Unuk River Cones,Canada,56.58,-130.55,1880,Cinder cone,Radiocarbon,vol-red
Isluga,Chile,-19.15,-68.83,5050,Stratovolcano,Historical,vol-red
Itasy Volc Field,Madagascar,-19,46.77,1800,Scoria cone,Radiocarbon,vol-red
"Ithnayn, Harrat",Saudi Arabia,26.58,40.2,1625,Volcanic field,Holocene,vol-red
Ivao Group,Russia,45.77,149.68,1426,Cinder cone,Holocene,vol-red
Iwaki,Japan,40.65,140.3,1625,Stratovolcano,Historical,vol-red
Iwate,Japan,39.85,141,2041,Complex volcano,Historical,vol-red
Iwo-Tori-shima,Japan,27.85,128.25,217,Complex volcano,Historical,vol-red
Iwo-jima,Japan,24.75,141.33,161,Caldera,Historical,vol-red
Ixtepeque,Guatemala,14.42,-89.68,1292,Lava dome,Holocene,vol-red
Iya,Indonesia,-8.88,121.63,637,Stratovolcano,Historical,vol-red
Iyang-Argapura,Indonesia,-7.97,113.57,3088,Complex volcano,Holocene,vol-red
Izalco,El Salvador,13.813,-89.633,1950,Stratovolcano,Historical,vol-red
Iztaccihuatl,Mexico,19.179,-98.642,5230,Stratovolcano,Holocene,vol-red
Izu-Tobu,Japan,34.92,139.12,1406,Pyroclastic cone,Historical,vol-red
Izumbwe-Mpoli,Tanzania,-8.93,33.4,1568,Pyroclastic cone,Holocene,vol-red
Jailolo,Indonesia,1.08,127.42,1130,Stratovolcano,Holocene,vol-red
Jalajala,Philippines,14.35,121.33,743,Fumarole field,Fumarolic,vol-red
Jalua,Eritrea,15.042,39.82,713,Stratovolcano,Holocene,vol-red
Jan Mayen,Jan Mayen,71.08,-8.17,2277,Stratovolcano,Historical,vol-red
Jaraguay Volc Field,Mexico,29.33,-114.5,960,Cinder cone,Holocene,vol-red
"Jayu Khota, Laguna",Bolivia,-19.45,-67.417,3650,Maars,Holocene,vol-red
Jefferson,United States,44.692,-121.8,3199,Stratovolcano,Varve Count,vol-red
Jingpohu,China,44.08,128.83,500,Volcanic field,Radiocarbon,vol-red
Jocotitlan,Mexico,19.724,-99.757,3900,Stratovolcano,Radiocarbon,vol-red
Jocotitlan,Mexico,19.733,-99.758,3900,Stratovolcano,Radiocarbon,vol-red
Jordan Craters,United States,43.03,-117.42,1473,Volcanic field,Holocene,vol-red
"Joya, La",Nicaragua,11.92,-85.98,300,Fissure vent,Holocene,vol-red
Kaba,Indonesia,-3.52,102.62,1952,Stratovolcano,Historical,vol-red
Kabargin Oth Group,Georgia,42.55,44,3650,Cinder cone,Holocene,vol-red
Kadovar,Papua New Guinea,-3.62,144.62,365,Stratovolcano,Holocene,vol-red
Kagamil,United States,52.97,-169.72,893,Stratovolcano,Historical,vol-red
Kaguyak,United States,58.62,-154.05,901,Stratovolcano,Holocene,vol-red
Kaikata Seamount,Japan,26.667,141,-162,Submarine volcano,Fumarolic,vol-red
Kaikohe-Bay of Islands,New Zealand,-35.3,173.9,388,Volcanic field,Radiocarbon,vol-red
Kaileney,Russia,57.8,160.67,1582,Shield volcano,Holocene,vol-red
Kaitoku Seamount,Japan,26.122,141.102,-10,Submarine volcano,Historical,vol-red
Kalatungan,Philippines,7.95,124.8,2824,Stratovolcano,Holocene,vol-red
Kambalny,Russia,51.3,156.87,2156,Stratovolcano,Holocene,vol-red
Kamen,Russia,56.02,160.593,4585,Stratovolcano,Holocene,vol-red
Kana Keoki,Solomon Is.,-8.75,157.03,-700,Submarine volcano,Holocene,vol-red
Kanaga,United States,51.92,-177.17,1307,Stratovolcano,Historical,vol-red
Kao,Tonga,-19.667,-175.033,1030,Stratovolcano,Holocene,vol-red
Karacalidag,Turkey,37.67,39.83,1957,Shield volcano,Holocene,vol-red
"Karaha, Kawah",Indonesia,-7.12,108.08,1155,Fumarole field,Fumarolic,vol-red
Karang,Indonesia,-6.27,106.042,1778,Stratovolcano,Holocene,vol-red
Karangetang [Api Siau],Indonesia,2.78,125.48,1784,Stratovolcano,Historical,vol-red
Karapinar Field,Turkey,37.67,33.65,1302,Cinder cone,Holocene,vol-red
Karisimbi,"Congo, DRC",-1.5,29.45,4507,Stratovolcano,Holocene,vol-red
Karkar,Papua New Guinea,-4.649,145.964,1839,Stratovolcano,Historical,vol-red
Karpinsky Group,Russia,50.13,155.37,1345,Cone,Historical,vol-red
Kars Plateau,Turkey,40.75,42.9,3000,Volcanic field,Holocene,vol-red
Karthala,Comoros,-11.75,43.38,2361,Shield volcano,Historical,vol-red
Karymsky,Russia,54.05,159.43,1536,Stratovolcano,Historical,vol-red
Kasatochi,United States,52.18,-175.5,314,Stratovolcano,Historical,vol-red
Kasbek,Georgia,42.7,44.5,5050,Stratovolcano,Tephrochronology,vol-red
Kasuga,Japan,21.77,143.72,-558,Submarine volcano,Uncertain,vol-red
Katla,Iceland,63.63,-19.05,1512,Subglacial volcano,Historical,vol-red
Katmai,United States,58.27,-154.98,2047,Stratovolcano,Historical,vol-red
Katunga,Uganda,-0.47,30.18,1707,Tuff cone,Holocene,vol-red
Katwe-Kikorongo Field,Uganda,-0.08,29.92,1067,Tuff cone,Holocene,vol-red
Kavachi,Solomon Is.,-9.02,157.95,-20,Submarine volcano,Historical,vol-red
Kawi-Butak,Indonesia,-7.92,112.45,2651,Stratovolcano,Holocene,vol-red
Kebeney,Russia,57.1,159.93,1527,Shield volcano,Holocene,vol-red
Kekurny,Russia,56.4,158.85,1377,Shield volcano,Holocene,vol-red
Kelimutu,Indonesia,-8.758,121.83,1640,Complex volcano,Historical,vol-red
Kell,Russia,51.65,157.35,900,Stratovolcano,Holocene,vol-red
Keluo Group,China,49.37,125.92,670,Pyroclastic cone,Holocene,vol-red
Kelut,Indonesia,-7.93,112.308,1731,Stratovolcano,Historical,vol-red
Kendang,Indonesia,-7.23,107.72,2608,Stratovolcano,Holocene,vol-red
Kerguelen Islands,French Southern & Antarctic Lands,-49.58,69.5,1840,Stratovolcano,Holocene,vol-red
Kerinci,Indonesia,-1.814,101.264,3800,Stratovolcano,Historical,vol-red
Ketoi,Russia,47.35,152.475,1172,Stratovolcano,Historical,vol-red
Khangar,Russia,54.75,157.38,2000,Stratovolcano,Radiocarbon,vol-red
Khanuy Gol,Mongolia,48.67,102.75,1886,Volcanic field,Holocene,vol-red
Kharimkotan,Russia,49.12,154.508,1145,Stratovolcano,Historical,vol-red
"Khaybar, Harrat",Saudi Arabia,25,39.92,2093,Volcanic field,Historical,vol-red
Khodutka,Russia,52.063,157.703,2090,Stratovolcano,Radiocarbon,vol-red
Kialagvik,United States,57.38,-156.75,1575,Stratovolcano,Holocene,vol-red
Kiaraberes-Gagak,Indonesia,-6.73,106.65,1511,Stratovolcano,Historical,vol-red
Kick-'em-Jenny,Netherlands,12.3,-61.63,-177,Submarine volcano,Historical,vol-red
Kieyo,Tanzania,-9.23,33.78,2175,Stratovolcano,Historical,vol-red
Kikai,Japan,30.78,130.28,717,Caldera,Historical,vol-red
Kikhpinych,Russia,54.487,160.253,1552,Stratovolcano,Radiocarbon,vol-red
Kilauea,United States,19.425,-155.292,1222,Shield volcano,Historical,vol-red
Kilimanjaro,Tanzania,-3.07,37.35,5895,Stratovolcano,Holocene,vol-red
Kinenin,Russia,57.35,160.967,583,Maar,Radiocarbon,vol-red
Kirishima,Japan,31.93,130.87,1700,Shield volcano,Historical,vol-red
"Kishb, Harrat",Saudi Arabia,22.8,41.38,1475,Volcanic field,Holocene,vol-red
Kiska,United States,52.1,177.6,1220,Stratovolcano,Historical,vol-red
Kita-Fukutokutai,Japan,24.414,141.419,-73,Submarine volcano,Holocene,vol-red
Kita-Iwo-jima,Japan,25.43,141.23,792,Stratovolcano,Historical,vol-red
Kizimen,Russia,55.13,160.32,2485,Stratovolcano,Historical,vol-red
Klabat,Indonesia,1.47,125.03,1995,Stratovolcano,Fumarolic,vol-red
Kliuchevskoi,Russia,56.057,160.638,4835,Stratovolcano,Historical,vol-red
Kolbeinsey Ridge,Iceland,66.67,-18.5,0,Submarine volcano,Historical,vol-red
Kolkhozhny,Russia,55.07,160.77,2161,Stratovolcano,Holocene,vol-red
Kolokol Group,Russia,46.042,150.05,1328,Somma volcano,Historical,vol-red
Komaga-take,Japan,42.07,140.68,1140,Stratovolcano,Historical,vol-red
Komarov,Russia,55.032,160.72,2070,Stratovolcano,Holocene,vol-red
Kone,Ethiopia,8.8,39.692,1619,Caldera,Historical,vol-red
Koniuji,United States,52.22,-175.13,272,Stratovolcano,Uncertain,vol-red
Kookooligit Mountains,United States,63.6,-170.43,673,Shield volcano,Holocene,vol-red
Koranga,Papua New Guinea,-7.33,146.708,0,Explosion crater,Holocene,vol-red
Korath Range,Ethiopia,5.1,35.88,912,Tuff cone,Holocene,vol-red
Koro,Fiji,-17.32,179.4,522,Cinder cone,Holocene,vol-red
Korosi,Kenya,0.77,36.12,1446,Shield volcano,Holocene,vol-red
Koryaksky,Russia,53.32,158.688,3456,Stratovolcano,Historical,vol-red
Koshelev,Russia,51.357,156.75,1812,Stratovolcano,Historical,vol-red
"Koussi, Emi",Chad,19.8,18.53,3415,Stratovolcano,Holocene,vol-red
Kozu-shima,Japan,34.22,139.15,574,Lava dome,Historical,vol-red
Kozyrevsky,Russia,55.58,158.38,2016,Shield volcano,Holocene,vol-red
Krafla,Iceland,65.73,-16.78,650,Caldera,Historical,vol-red
Krainy,Russia,56.37,159.03,1554,Shield volcano,Holocene,vol-red
Krakagiger,Iceland,63.98,-19.7,1491,Stratovolcano,Historical,vol-red
Krakatau,Indonesia,-6.102,105.423,813,Caldera,Historical,vol-red
Krasheninnikov,Russia,54.593,160.273,1856,Caldera,Radiocarbon,vol-red
Kristnitokugigar,Iceland,63.98,-21.42,301,Crater rows,Historical,vol-red
Krisuvik,Iceland,63.93,-22.1,379,Crater rows,Historical,vol-red
Kronotsky,Russia,54.753,160.527,3528,Stratovolcano,Historical,vol-red
Ksudach,Russia,51.8,157.53,1079,Stratovolcano,Historical,vol-red
Kuchino-shima,Japan,29.97,129.93,627,Stratovolcano,Holocene,vol-red
Kuchino-shima,Japan,29.964,129.928,628,Stratovolcanoes,Radiocarbon,vol-red
Kuchinoerabu-jima,Japan,30.43,130.22,649,Stratovolcano,Historical,vol-red
Kuei-Shan-Tao,Taiwan,24.85,121.92,401,Stratovolcano,Pleistocene-Fumarol,vol-red
Kuju Group,Japan,33.08,131.25,1788,Stratovolcano,Historical,vol-red
Kukak,United States,58.47,-154.35,2040,Stratovolcano,Fumarolic,vol-red
Kula,Turkey,38.58,28.52,750,Cinder cone,Holocene,vol-red
Kulkev,Russia,56.37,158.37,915,Shield volcano,Holocene,vol-red
Kunlun Volc Group,China,35.52,80.2,5808,Pyroclastic cone,Historical,vol-red
Kupreanof,United States,56.02,-159.8,1895,Stratovolcano,Historical,vol-red
Kurikoma,Japan,38.95,140.78,1628,Stratovolcano,Historical,vol-red
Kurile Lake,Russia,51.45,157.12,104,Caldera,Radiocarbon,vol-red
Kurose Hole,Japan,33.4,139.68,-107,Submarine volcano,Holocene,vol-red
Kurose Hole,Japan,33.4,139.683,-107,Submarine volcano,Holocene?,vol-red
Kurub,Ethiopia,11.88,41.208,625,Shield volcano,Holocene,vol-red
Kusatsu-Shirane,Japan,36.62,138.55,2176,Stratovolcano,Historical,vol-red
Kutcharo,Japan,43.55,144.43,1000,Caldera,Tephrochronology,vol-red
Kuttara,Japan,42.5,141.18,581,Stratovolcano,Tephrochronology,vol-red
Kutum Volc Field,Sudan,14.5,25.8,0,Scoria cone,Holocene,vol-red
Kuwae,Vanuatu,-16.829,168.536,-2,Caldera,Historical,vol-red
Kverkfjoll,Iceland,64.65,-16.72,1920,Stratovolcano,Historical,vol-red
Kyatwa Volc Field,Uganda,0.45,30.25,1430,Tuff cone,Holocene,vol-red
La Palma,Spain,28.58,-17.83,2426,Stratovolcano,Historical,vol-red
"Lajas, Las",Nicaragua,12.3,-85.73,926,Shield volcano,Holocene,vol-red
Lakagigar,Sweden,64.42,17.33,1725,Caldera,Historical,vol-red
Lambafit,Iceland,64.08,-19.4,550,Crater rows,Historical,vol-red
Lamington,Papua New Guinea,-8.95,148.15,1680,Stratovolcano,Historical,vol-red
Lamongan,Indonesia,-8,113.342,1651,Stratovolcano,Historical,vol-red
Langila,Papua New Guinea,-5.525,148.42,1330,Complex volcano,Historical,vol-red
Langjokull,Iceland,64.75,-19.98,1360,Stratovolcano,Radiocarbon,vol-red
Lanin,Argentina,-39.633,-71.5,3747,Stratovolcano,Holocene,vol-red
Lanzarote,Spain,29.03,-13.63,670,Fissure vent,Historical,vol-red
Larderello,Italy,43.25,10.87,500,Explosion crater,Historical,vol-red
Lascar,Chile,-23.37,-67.73,5592,Stratovolcano,Historical,vol-red
Lassen Volc Center,United States,40.492,-121.508,3187,Stratovolcano,Historical,vol-red
Lastarria,Chile,-25.17,-68.5,5697,Stratovolcano,Holocene,vol-red
Late,Tonga,-18.806,-174.65,518,Stratovolcano,Historical,vol-red
Latukan,Philippines,7.65,124.47,2158,Stratovolcano,Holocene,vol-red
Lautaro,Chile,-49.02,-73.55,3380,Stratovolcano,Historical,vol-red
Lavic Lake,United States,34.75,-116.625,1495,Volcanic field,Holocene,vol-red
Lawu,Indonesia,-7.625,111.192,3265,Stratovolcano,Holocene,vol-red
Leizhou Bandao,China,20.83,109.78,259,Volcanic field,Holocene,vol-red
"Lengai, Ol Doinyo",Tanzania,-2.751,35.902,2890,Stratovolcano,Historical,vol-red
Leonard Range,Philippines,7.393,126.397,1190,Stratovolcano,Holocene,vol-red
Leroboleng,Indonesia,-8.358,122.842,1117,Complex volcano,Historical,vol-red
Leskov Island,Antarctica,-56.67,-28.13,190,Stratovolcano,Fumarolic,vol-red
Leutongey,Russia,57.3,159.83,1333,Shield volcano,Holocene,vol-red
Level Mountain,Canada,58.42,-131.35,2190,Shield volcano,Holocene,vol-red
Lewotobi,Indonesia,-8.53,122.775,1703,Stratovolcano,Historical,vol-red
Lewotobi Perempuan,Indonesia,-8.575,122.78,1703,Stratovolcano,Historical,vol-red
Lewotolo,Indonesia,-8.272,123.505,1423,Stratovolcano,Historical,vol-red
Lexone,Chile,-17.87,-69.48,5340,Lava dome,Holocene,vol-red
Liado Hayk Field,Ethiopia,9.57,40.28,878,Maar,Holocene,vol-red
Liamuiga,St. Kitts & Nevis,17.37,-62.8,1156,Stratovolcano,Radiocarbon,vol-red
Licancabur,Chile,-22.83,-67.88,5916,Stratovolcano,Holocene,vol-red
Lihir,Papua New Guinea,-3.125,152.642,700,Volcanic complex,Holocene,vol-red
Lindenberg Island,Antarctica,-65.03,-60.05,368,Pyroclastic cone,Uncertain,vol-red
Lipari,Italy,38.48,14.95,602,Stratovolcano,Historical,vol-red
Lipari,Italy,38.483,14.95,602,Stratovolcanoes,Radiocarbon,vol-red
Little Sitkin,United States,51.95,178.53,1188,Stratovolcano,Historical,vol-red
Ljosufjoll,Iceland,64.87,-22.23,988,Fissure vent,Anthropology,vol-red
Llaima,Chile,-38.692,-71.729,3125,Stratovolcano,Historical,vol-red
Llullaillaco,Argentina,-24.72,-68.53,6739,Stratovolcano,Historical,vol-red
Loihi,United States,18.92,-155.27,-975,Submarine volcano,Historical,vol-red
Lokon-Empung,Indonesia,1.358,124.792,1580,Stratovolcano,Historical,vol-red
Lolo,Papua New Guinea,-5.47,150.5,805,Stratovolcano,Holocene,vol-red
Lolobau,Papua New Guinea,-4.92,151.158,858,Caldera,Historical,vol-red
Loloru,Papua New Guinea,-6.52,155.62,1887,Pyroclastic shield,Radiocarbon,vol-red
Lomonosov Group,Russia,50.25,155.43,1681,Cinder cone,Holocene,vol-red
Long Island,Papua New Guinea,-5.358,147.12,1280,Complex volcano,Historical,vol-red
"Longavi, Nevado de",Chile,-36.193,-71.161,3242,Stratovolcano,Holocene,vol-red
Longgang Group,China,42.33,126.5,1000,Cinder cone,Radiocarbon,vol-red
Longonot,Kenya,-0.92,36.45,2776,Stratovolcano,Anthropology,vol-red
Lonquimay,Chile,-38.377,-71.58,2865,Stratovolcano,Historical,vol-red
Lopevi,Vanuatu,-16.507,168.346,1413,Stratovolcano,Historical,vol-red
Lower Chindwin,Myanmar,22.28,95.1,385,Volcanic field,Holocene,vol-red
Lubukraya,Indonesia,1.478,99.209,1862,Stratovolcano,Holocene,vol-red
"Lumut Balai, Bukit",Indonesia,-4.22,103.62,2055,Stratovolcano,Fumarolic,vol-red
"Lunayyir, Harrat",Saudi Arabia,25.17,37.75,1370,Volcanic field,Historical,vol-red
Lurus,Indonesia,-7.7,113.58,539,Complex volcano,Holocene,vol-red
Lvinaya Past,Russia,44.62,147,528,Stratovolcano,Radiocarbon,vol-red
Lysuholl,Iceland,64.87,-23.25,540,Pyroclastic cone,Holocene,vol-red
Ma Alalta,Ethiopia,13.02,40.2,1815,Stratovolcano,Holocene,vol-red
Maca,Chile,-45.1,-73.2,2960,Stratovolcano,Holocene,vol-red
Macauley Island,New Zealand,-30.2,-178.47,238,Caldera,Holocene,vol-red
Macdonald,Antarctica,-28.98,-140.25,-50,Submarine volcano,Historical,vol-red
"Machin, Cerro",Colombia,4.48,-75.4,2650,Stratovolcano,Radiocarbon,vol-red
Madeira,Portugal,32.733,-16.967,1862,Shield volcano,Radiocarbon,vol-red
Maderas,Nicaragua,11.446,-85.515,1394,Stratovolcano,Holocene,vol-red
Madilogo,Papua New Guinea,-9.2,147.57,850,Pyroclastic cone,Holocene,vol-red
Magaso,Philippines,9.258,123.175,1904,Stratovolcano,Holocene,vol-red
Mageik,United States,58.2,-155.25,2165,Stratovolcano,Historical,vol-red
Mahagnoa,Philippines,10.872,124.853,800,Stratovolcano,Fumarolic,vol-red
Mahawu,Indonesia,1.358,124.858,1324,Stratovolcano,Historical,vol-red
Maipo,Argentina,-34.161,-69.833,5264,Caldera,Historical,vol-red
Makaturing,Philippines,7.647,124.32,1940,Stratovolcano,Holocene,vol-red
Makian,Indonesia,0.32,127.4,1357,Stratovolcano,Historical,vol-red
Makushin,United States,53.9,-166.93,2036,Stratovolcano,Historical,vol-red
Malabar,Indonesia,-7.13,107.65,2343,Stratovolcano,Holocene,vol-red
Malang Plain,Indonesia,-8.02,112.68,680,Maar,Holocene,vol-red
Malinao,Philippines,13.422,123.597,1548,Stratovolcano,Fumarolic,vol-red
"Malinche, La",Mexico,19.23,-98.03,4503,Stratovolcano,Radiocarbon,vol-red
Malindang,Philippines,8.22,123.63,2435,Stratovolcano,Holocene,vol-red
Malindig,Philippines,13.24,122.018,1157,Stratovolcano,Hot Springs,vol-red
Malintang,Indonesia,0.467,99.667,1983,Stratovolcano,Holocene,vol-red
Mallahle,Ethiopia,13.27,41.65,1875,Stratovolcano,Holocene,vol-red
Maly Payalpan,Russia,55.82,157.98,1802,Shield volcano,Holocene,vol-red
Maly Semiachik,Russia,54.13,159.67,1560,Caldera,Historical,vol-red
Managlase Plateau,Papua New Guinea,-9.08,148.33,1342,Volcanic field,Anthropology,vol-red
Manam,Papua New Guinea,-4.1,145.061,1807,Stratovolcano,Historical,vol-red
Manareyjar,Iceland,66.3,-17.1,0,Submarine volcano,Historical,vol-red
Manda Gargori,Ethiopia,11.75,41.483,,Fissure vents,Anthropology,vol-red
Manda Hararo,Ethiopia,12.17,40.82,600,Shield volcano,Holocene,vol-red
Manda-Inakir,Ethiopia,12.38,42.2,600,Fissure vent,Historical,vol-red
Mandalagan,Philippines,10.615,123.22,1879,Stratovolcano,Holocene,vol-red
Manengouba,Cameroon,5.03,9.83,2411,Stratovolcano,Holocene,vol-red
Manuk,Pacific Ocean,-5.53,130.292,282,Stratovolcano,Fumarolic,vol-red
Manzaz Volc Field,Algeria,23.917,5.833,1672,Scoria cones,Holocene,vol-red
Maquiling,Philippines,14.13,121.2,1090,Stratovolcano,Holocene,vol-red
Marapi,Indonesia,-0.381,100.473,2891,Complex volcano,Historical,vol-red
Marchena,Ecuador,0.33,-90.47,343,Shield volcano,Historical,vol-red
Mare,Indonesia,0.57,127.4,308,Unknown,Holocene,vol-red
"Marha, Jabal el-",Yemen,15.28,44.22,2650,Tuff cone,Holocene,vol-red
Marion Island,South Africa,-46.9,37.75,1230,Shield volcano,Historical,vol-red
Mariveles,Philippines,14.5,120.5,1420,Stratovolcano,Radiocarbon,vol-red
Markagunt Plateau,United States,37.58,-112.67,2840,Volcanic field,Dendrochronology,vol-red
Maroa,New Zealand,-38.42,176.08,1156,Caldera,Tephrochronology,vol-red
"Marra, Jebel",Sudan,12.95,24.27,3042,Volcanic field,Radiocarbon,vol-red
Marsabit,Kenya,2.32,37.97,1707,Shield volcano,Holocene,vol-red
Martin,United States,58.17,-155.35,1860,Stratovolcano,Historical,vol-red
Masaraga,Philippines,13.32,123.6,1328,Stratovolcano,Holocene,vol-red
Masaya,Nicaragua,11.984,-86.161,635,Caldera,Historical,vol-red
Mascota Volc Field,Mexico,20.62,-104.83,2540,Shield volcano,Holocene,vol-red
Mashkovtsev,Russia,51.1,156.72,503,Stratovolcano,Holocene,vol-red
Mashu,Japan,43.57,144.57,855,Caldera,Radiocarbon,vol-red
Mat Ala,Ethiopia,13.1,41.15,523,Shield volcano,Holocene,vol-red
Matthew Island,Pacific Ocean,-22.33,171.32,177,Stratovolcano,Historical,vol-red
Matutum,Philippines,6.37,125.108,2293,Stratovolcano,Holocene,vol-red
Maug Islands,United States,20.017,145.217,227,Stratovolcano,Fumarolic,vol-red
"Maule, Laguna del",Chile,-36.02,-70.58,3092,Stratovolcano,Holocene,vol-red
Mauna Kea,United States,19.82,-155.47,4206,Shield volcano,Radiocarbon,vol-red
Mauna Loa,United States,19.475,-155.608,4170,Shield volcano,Historical,vol-red
May-ya-moto,"Congo, DRC",-0.93,29.33,950,Fumarole field,Fumarolic,vol-red
Mayon,Philippines,13.257,123.685,2462,Stratovolcano,Historical,vol-red
Mayor Island,New Zealand,-37.28,176.25,355,Shield volcano,Radiocarbon,vol-red
McDonald Islands,Indian Ocean,-53.03,72.6,186,Complex volcano,Historical,vol-red
Meager,Canada,50.63,-123.5,2680,Complex volcano,Radiocarbon,vol-red
Medicine Lake,United States,41.58,-121.57,2412,Shield volcano,Radiocarbon,vol-red
Medvezhia,Russia,45.38,148.83,1124,Somma volcano,Historical,vol-red
Mega Basalt Field,Kenya,4.08,37.42,1067,Pyroclastic cone,Holocene,vol-red
Megata,Japan,39.95,139.73,291,Maar,Tephrochronology,vol-red
Mehetia,France,-17.87,-148.07,435,Stratovolcano,Anthropology,vol-red
Meidob Volc Field,Sudan,15.32,26.47,2000,Scoria cone,Holocene,vol-red
Melbourne,Antarctica,-74.35,164.7,2732,Stratovolcano,Tephrochronology,vol-red
Melimoyu,Chile,-44.08,-72.88,2400,Stratovolcano,Holocene,vol-red
Mendeleev,Russia,43.98,145.7,887,Stratovolcano,Historical,vol-red
Menengai,Kenya,-0.2,36.07,2278,Shield volcano,Tephrochronology,vol-red
Mentolat,Chile,-44.67,-73.08,1660,Stratovolcano,Holocene,vol-red
Merapi,Indonesia,-7.542,110.442,2947,Stratovolcano,Historical,vol-red
Merbabu,Indonesia,-7.45,110.43,3145,Stratovolcano,Historical,vol-red
Mere Lava,Vanuatu,-14.45,168.05,1028,Stratovolcano,Holocene,vol-red
Meru,Tanzania,-3.25,36.75,4565,Stratovolcano,Historical,vol-red
Methana,Greece,37.615,23.336,760,Lava dome,Historical,vol-red
Metis Shoal,Tonga,-19.18,-174.87,43,Submarine volcano,Historical,vol-red
Mezhdusopochny,Russia,57.47,160.25,1641,Shield volcano,Holocene,vol-red
Michael,Antarctica,-57.78,-26.45,990,Stratovolcano,Historical,vol-red
Michoacan-Guanajuato,Mexico,19.48,-102.25,3860,Cinder cone,Historical,vol-red
Micotrin,Dominica,15.33,-61.33,1387,Lava dome,Historical,vol-red
Middle Gobi,Mongolia,45.28,106.7,1120,Cinder cone,Holocene,vol-red
Milbanke Sound Group,Canada,52.5,-128.73,335,Cinder cone,Holocene,vol-red
Milne,Russia,46.82,151.78,1540,Somma volcano,Holocene,vol-red
Milos,Greece,36.699,24.439,751,Stratovolcano,Holocene,vol-red
Minami-Hiyoshi,Japan,23.507,141.905,-30,Submarine volcano,Historical,vol-red
Minchinmavida,Chile,-42.78,-72.43,2404,Stratovolcano,Historical,vol-red
Miravalles,Costa Rica,10.748,-85.153,2028,Stratovolcano,Historical,vol-red
"Misti, El",Peru,-16.294,-71.409,5822,Stratovolcano,Historical,vol-red
Miyake-jima,Japan,34.08,139.53,815,Stratovolcano,Historical,vol-red
Mocho-Choshuenco,Chile,-39.927,-72.027,2422,Stratovolcano,Historical,vol-red
Moffett,United States,51.93,-176.75,1196,Stratovolcano,Holocene,vol-red
Mojanda,Ecuador,0.13,-78.27,4263,Stratovolcano,Holocene,vol-red
Mojanda,Ecuador,0.133,-78.267,4263,Stratovolcanoes,Holocene?,vol-red
Mokuyo Seamount,Japan,28.317,140.567,-920,Submarine volcano,Fumarolic,vol-red
Mombacho,Nicaragua,11.826,-85.968,1344,Stratovolcano,Holocene,vol-red
Momotombo,Nicaragua,12.422,-86.54,1297,Stratovolcano,Historical,vol-red
Monaco Bank,Portugal,37.6,-25.88,-197,Submarine volcano,Historical,vol-red
Mondaca,Chile,-35.464,-70.8,2048,Lava dome,Holocene,vol-red
Mono Craters,United States,37.88,-119,2796,Lava dome,Radiocarbon,vol-red
Mono Lake Volc Field,United States,38,-119.03,2121,Cinder cone,Tephrochronology,vol-red
Monowai Seamount,New Zealand,-25.887,-177.188,-100,Submarine volcano,Historical,vol-red
Montagu Island,Antarctica,-58.417,-26.333,1370,Shield volcano,Historical,vol-red
"Morning, Mt.",Antarctica,-78.5,163.533,2723,Shield volcano,Holocene,vol-red
Moti,Indonesia,0.45,127.4,950,Stratovolcano,Holocene,vol-red
Motlav,Vanuatu,-13.67,167.67,411,Stratovolcano,Holocene,vol-red
Moua Pihaa,France,-18.32,-148.67,-180,Submarine volcano,Seismicity,vol-red
Mousa Alli,Djibouti,12.47,42.4,2028,Stratovolcano,Holocene,vol-red
Moyuta,Guatemala,14.03,-90.1,1662,Stratovolcano,Hot Springs,vol-red
Muhavura,Uganda,-1.38,29.67,4127,Stratovolcano,Holocene,vol-red
Mundafell,Iceland,63.98,-19.7,1491,Stratovolcano,Historical,vol-red
Mundua,Papua New Guinea,-4.63,149.35,179,Complex volcano,Holocene,vol-red
Muria,Indonesia,-6.617,110.883,1625,Stratovolcano,Holocene,vol-red
Musa River,Papua New Guinea,-9.308,148.13,808,Hydrothermal field,Hot Springs,vol-red
Mutnovsky,Russia,52.453,158.195,2322,Complex volcano,Historical,vol-red
Myojun Knoll,Japan,32.1,139.85,360,Submarine volcano,Holocene,vol-red
Myoko,Japan,36.88,138.12,2446,Stratovolcano,Radiocarbon,vol-red
NW Rota-1,United States,14.601,144.775,-517,Submarine volcano,Historical,vol-red
Nabro,Eritrea,13.37,41.7,2218,Stratovolcano,Holocene,vol-red
Nabukelevu,Tonga,-19.117,177.983,805,Lava domes,Radiocarbon,vol-red
Nakano-shima,Japan,29.85,129.87,979,Stratovolcano,Historical,vol-red
Namarunu,Kenya,1.9,36.27,817,Shield volcano,Tephrochronology,vol-red
Nantai,Japan,36.77,139.5,2484,Stratovolcano,Holocene,vol-red
Naolinco Volc Field,Mexico,19.67,-96.75,2000,Pyroclastic cone,Holocene,vol-red
Narcondum,India,13.43,94.25,710,Stratovolcano,Holocene,vol-red
Narugo,Japan,38.73,140.73,462,Caldera,Historical,vol-red
Nasu,Japan,37.12,139.97,1917,Stratovolcano,Historical,vol-red
Natib,Philippines,14.705,120.4,1287,Stratovolcano,Holocene,vol-red
Nazko,Canada,52.9,-123.73,1230,Cinder cone,Radiocarbon,vol-red
Ndete Napu,Indonesia,-8.72,121.78,750,Fumarole field,Fumarolic,vol-red
"Negra, Sierra",Ecuador,-0.83,-91.17,1490,Shield volcano,Historical,vol-red
"Negrillar, El",Chile,-24.18,-68.25,3500,Pyroclastic cone,Holocene,vol-red
"Negrillar, La",Chile,-24.28,-68.6,4109,Pyroclastic cone,Holocene,vol-red
"Negro de Mayasquer, Cerro",Ecuador,0.828,-77.964,4445,Stratovolcano,Holocene,vol-red
"Negro, Cerro",Nicaragua,12.506,-86.702,728,Cinder cone,Historical,vol-red
Nejapa-Miraflores,Nicaragua,12.12,-86.32,360,Fissure vent,Holocene,vol-red
Nemo Peak,Russia,49.57,154.808,1018,Caldera,Historical,vol-red
Nemrut Dagi,Turkey,38.65,42.02,3050,Stratovolcano,Historical,vol-red
"Nevada, Sierra",Argentina,-26.48,-68.58,6127,Complex volcano,Holocene,vol-red
Nevis Peak,Netherlands,17.15,-62.58,985,Stratovolcano,Holocene,vol-red
Newberry Volcano,United States,43.722,-121.229,2434,Shield volcano,Radiocarbon,vol-red
Newer Volcanics Prov,Australia,-37.77,142.5,1011,Shield volcano,Radiocarbon,vol-red
Ngaoundere Plateau,Cameroon,7.25,13.67,0,Volcanic field,Holocene,vol-red
Ngauruhoe,New Zealand,-39.158,175.63,2291,Stratovolcano,Historical,vol-red
Ngozi,Tanzania,-8.97,33.57,2622,Caldera,Holocene,vol-red
"Nicholson, Cerro",Peru,-16.258,-71.753,2520,Cinder cone,Holocene,vol-red
Nieuwerkerk,Pacific Ocean,-6.6,124.675,-2285,Submarine volcano,Uncertain,vol-red
Nightingale Island,United Kingdom,-37.417,-12.483,365,Stratovolcano,Historical,vol-red
Nii-jima,Japan,34.37,139.27,432,Lava dome,Historical,vol-red
Niigata-Yake-yama,Japan,36.92,138.03,2400,Lava dome,Historical,vol-red
Nikko,Japan,23.075,142.308,-391,Submarine volcano,Uncertain,vol-red
Nikko-Shirane,Japan,36.8,139.38,2578,Shield volcano,Historical,vol-red
Nila,Pacific Ocean,-6.73,129.5,781,Stratovolcano,Historical,vol-red
Nipesotsu-Upepesanke,Japan,43.45,143.03,2013,Lava dome,Historical,vol-red
Niseko,Japan,42.88,140.63,1154,Stratovolcano,Holocene,vol-red
Nishino-shima,Japan,27.274,140.882,38,Caldera,Historical,vol-red
Nisyros,Greece,36.58,27.18,698,Stratovolcano,Historical,vol-red
Niuafo'ou,Tonga,-15.6,-175.63,260,Shield volcano,Historical,vol-red
Norikura,Japan,36.12,137.55,3026,Stratovolcano,Radiocarbon,vol-red
North Gorda Ridge,Pacific Ocean,42.67,-126.78,-3000,Submarine volcano,Historical,vol-red
North Gorda Ridge,Pacific Ocean,42.667,-126.783,-3000,Submarine volcano,Historical,vol-red
North Island,Kenya,4.07,36.05,520,Tuff cone,Holocene,vol-red
North Sister Field,United States,44.17,-121.77,3074,Complex volcano,Radiocarbon,vol-red
North Vate,Vanuatu,-17.45,168.33,594,Stratovolcano,Holocene,vol-red
Northern EPR-Segment RO3,Pacific Ocean,15.833,-105.433,-2300,Submarine volcano,Magnetism,vol-red
Nosy-Be,Madagascar,-13.32,48.48,214,Cinder cone,Holocene,vol-red
Novarupta,United States,58.27,-155.16,841,Caldera,Historical,vol-red
Nuevo Mundo,Bolivia,-19.783,-66.483,5438,Lava domes,Holocene?,vol-red
Numazawa,Japan,37.43,139.58,1100,Shield volcano,Radiocarbon,vol-red
Nunivak Island,United States,60.02,-166.33,511,Shield volcano,Holocene,vol-red
Nyambeni Hills,Kenya,0.23,37.87,750,Shield volcano,Holocene,vol-red
Nyamuragira,"Congo, DRC",-1.408,29.2,3058,Shield volcano,Historical,vol-red
Nyiragongo,"Congo, DRC",-1.52,29.25,3470,Stratovolcano,Historical,vol-red
Ofu-Olosega,United States,-14.175,-169.618,639,Shield volcano,Historical,vol-red
"Ojos del Salado, Nevados",Argentina,-27.12,-68.53,6887,Stratovolcano,Holocene,vol-red
Oka Volc Field,Russia,52.7,98.98,2077,Cinder cone,Holocene,vol-red
Okataina,New Zealand,-38.12,176.5,1111,Lava dome,Historical,vol-red
Oki-Dogo,Japan,36.17,133.33,151,Shield volcano,Anthropology,vol-red
Okmok,United States,53.42,-168.13,1073,Shield volcano,Historical,vol-red
Oku Volc Field,Cameroon,6.25,10.5,3011,Maar,Radiocarbon,vol-red
Ol Kokwe,Kenya,0.63,36.08,1130,Shield volcano,Holocene,vol-red
Olca-Paruma,Bolivia,-20.93,-68.48,5407,Stratovolcano,Historical,vol-red
Olkaria,Kenya,-0.904,36.292,2434,Pumice cone,Radiocarbon,vol-red
Olkoviy,Russia,52.077,157.477,636,Shield volcano,Holocene,vol-red
Ollague,Bolivia,-21.3,-68.18,5868,Stratovolcano,Holocene,vol-red
Olot Volc Field,Spain,42.17,2.53,893,Pyroclastic cone,Holocene,vol-red
Omachi Seamount,Japan,29.22,140.8,-1700,Submarine volcano,Uncertain,vol-red
Omanago Group,Japan,36.78,139.5,2367,Lava dome,Holocene,vol-red
On-take,Japan,35.9,137.48,3063,Complex volcano,Historical,vol-red
Opala,Russia,52.543,157.335,2475,Caldera,Radiocarbon,vol-red
Oraefajokull,Iceland,64,-16.65,2119,Stratovolcano,Historical,vol-red
"Orizaba, Pico de",Mexico,19.03,-97.268,5675,Stratovolcano,Historical,vol-red
Ormus Islands,Indian Ocean,26,57,0,Submarine volcano,Holocene,vol-red
Orosi,Costa Rica,10.98,-85.473,1659,Stratovolcano,Uncertain,vol-red
Oshima,Japan,34.73,139.38,758,Stratovolcano,Historical,vol-red
Oshima-Oshima,Japan,41.5,139.37,737,Stratovolcano,Historical,vol-red
Osore-yama,Japan,41.32,141.08,879,Stratovolcano,Historical,vol-red
Osorno,Chile,-41.1,-72.493,2652,Stratovolcano,Historical,vol-red
Ostanets,Russia,52.146,157.322,719,Shield volcano,Holocene,vol-red
Ostry,Russia,58.18,160.82,2552,Stratovolcano,Holocene,vol-red
Otdelniy,Russia,52.22,157.428,791,Shield volcano,Holocene,vol-red
"Overo, Cerro",Chile,-23.35,-67.67,4555,Maar,Holocene,vol-red
Ozernoy,Russia,51.88,157.38,562,Shield volcano,Holocene,vol-red
Pacaya,Guatemala,14.381,-90.601,2552,Complex volcano,Historical,vol-red
Paco,Philippines,9.593,125.52,524,Stratovolcano,Anthropology,vol-red
Pagan,United States,18.13,145.8,570,Stratovolcano,Historical,vol-red
Pago,Papua New Guinea,-5.58,150.52,742,Caldera,Historical,vol-red
Paka,Kenya,0.92,36.18,1697,Shield volcano,Ar/Ar,vol-red
Palei-Aike Volc Field,Chile,-52,-70,250,Cinder cone,Anthropology,vol-red
Palena Volc Group,Chile,-43.68,-72.5,0,Cinder cone,Holocene,vol-red
Palinuro,Italy,39.483,14.833,-70,Submarine volcano,Radiocarbon,vol-red
Palomo,Chile,-34.608,-70.295,4860,Stratovolcano,Holocene,vol-red
Paluweh,Indonesia,-8.32,121.708,875,Stratovolcano,Historical,vol-red
Pampa Luxsar,Bolivia,-20.85,-68.2,5543,Volcanic field,Holocene,vol-red
Pantelleria,Italy,36.77,12.02,836,Shield volcano,Historical,vol-red
"Pantoja, Cerro",Chile,-40.77,-71.95,2112,Stratovolcano,Holocene,vol-red
Papandayan,Indonesia,-7.32,107.73,2665,Stratovolcano,Historical,vol-red
Papayo,Mexico,19.308,-98.7,3600,Lava dome,Holocene,vol-red
Paricutin Volcanic Field,Mexico,19.48,-102.25,3860,Cinder cone,Historical,vol-red
Parker,Philippines,6.12,124.892,1824,Stratovolcano,Historical,vol-red
Patah,Indonesia,-4.27,103.3,2817,Unknown,Uncertain,vol-red
"Patates, Morne",Dominica,15.22,-61.37,960,Stratovolcano,Radiocarbon,vol-red
Patilla Pata,Bolivia,-18.05,-69.03,5300,Stratovolcano,Holocene,vol-red
Patoc,Philippines,17.147,120.98,1865,Stratovolcano,Fumarolic,vol-red
Patuha,Indonesia,-7.15,107.37,2434,Stratovolcano,Holocene,vol-red
Paulet,Antarctica,-63.58,-55.77,353,Cinder cone,Holocene,vol-red
Pavlof,United States,55.42,-161.9,2519,Stratovolcano,Historical,vol-red
Pavlof Sister,United States,55.45,-161.87,2142,Stratovolcano,Historical,vol-red
"Payun Matru, Cerro",Argentina,-36.42,-69.2,3691,Shield volcano,Holocene,vol-red
Peinado,Argentina,-26.617,-68.15,5740,Stratovolcano,Holocene,vol-red
Pelee,Martinique,14.82,-61.17,1397,Stratovolcano,Historical,vol-red
Penanggungan,Indonesia,-7.62,112.63,1653,Stratovolcano,Holocene,vol-red
Pendan,Indonesia,-2.82,102.02,0,Unknown,Holocene,vol-red
Penguin Island,Antarctica,-62.1,-57.93,180,Stratovolcano,Lichenometry,vol-red
Perbakti,Indonesia,-6.75,106.68,1699,Stratovolcano,Fumarolic,vol-red
Petacas,Colombia,1.57,-76.78,4054,Lava dome,Holocene,vol-red
Peter I Island,Antarctica,-68.85,-90.58,1640,Shield volcano,Holocene,vol-red
Peuet Sague,Indonesia,4.914,96.329,2801,Complex volcano,Historical,vol-red
Pico,Portugal,38.47,-28.4,2351,Stratovolcano,Historical,vol-red
Piip,Russia,55.42,167.33,-300,Submarine volcano,Tephrochronology,vol-red
"Pilas, Las",Nicaragua,12.495,-86.688,1088,Complex volcano,Historical,vol-red
"Pina, Cerro",Chile,-19.492,-68.65,4037,Unknown,Holocene,vol-red
Pinacate,Mexico,31.772,-113.498,1200,Cinder cone,Holocene,vol-red
Pinatubo,Philippines,15.13,120.35,1486,Stratovolcano,Historical,vol-red
Pinta,Ecuador,0.58,-90.75,780,Shield volcano,Historical,vol-red
Piparo,Trinidad,10,-61,140,Mud volcano,Historical,vol-red
Piratkovsky,Russia,52.113,157.849,1322,Stratovolcano,Holocene,vol-red
Planchon-Peteroa,Chile,-35.24,-70.57,4107,Caldera,Historical,vol-red
Platanar,Costa Rica,10.3,-84.366,2267,Stratovolcano,Holocene,vol-red
"Pleiades, The",Antarctica,-72.67,165.5,3040,Stratovolcano,K-Ar,vol-red
Plosky,Russia,55.2,158.47,1236,Shield volcano,Holocene,vol-red
Plosky,Russia,57.83,160.25,1255,Shield volcano,Holocene,vol-red
Plosky Volc Group,Russia,52.02,157.53,681,Volcanic field,Holocene,vol-red
Poas,Costa Rica,10.2,-84.233,2708,Stratovolcano,Historical,vol-red
Pocdol Mountains,Philippines,13.05,123.958,1102,Compound volcano,Holocene,vol-red
Poco Leok,Indonesia,-8.68,120.48,1675,Unknown,Fumarolic,vol-red
Pogranychny,Russia,56.85,159.8,1427,Shield volcano,Holocene,vol-red
Popa,Myanmar,20.87,95.23,1518,Stratovolcano,Anthropology,vol-red
Popocatepetl,Mexico,19.023,-98.622,5426,Stratovolcano,Historical,vol-red
Porak,Armenia,40.017,45.783,2800,Stratovolcano,Anthropology,vol-red
"Possession, Ile de la",Indian Ocean,-46.42,51.63,934,Stratovolcano,Holocene,vol-red
Prestahnukur,Iceland,64.6,-20.58,1390,Subglacial volcano,Radiocarbon,vol-red
Prevo Peak,Russia,47.02,152.12,1360,Stratovolcano,Historical,vol-red
"Prieto, Cerro",Mexico,32.418,-115.305,223,Lava dome,Holocene,vol-red
Prince Edward Island,Indian Ocean,-46.63,37.95,672,Shield volcano,Holocene,vol-red
Protector Shoal,Antarctica,-55.92,-28.08,-27,Submarine volcano,Historical,vol-red
Puesto Cortaderas,Argentina,-37.55,-69.62,970,Pyroclastic cone,Holocene,vol-red
Puesto Cortaderas,Argentina,-37.567,-69.617,970,Pyroclastic cone,Holocene,vol-red
Pular,Chile,-24.18,-68.05,6233,Stratovolcano,Holocene,vol-red
Pululagua,Ecuador,0.038,-78.463,3356,Caldera,Radiocarbon,vol-red
Puntiagudo-Cordon Cenizo,Chile,-40.969,-72.264,2493,Stratovolcano,Historical,vol-red
Purace,Colombia,2.32,-76.4,4650,Stratovolcano,Historical,vol-red
Purico Complex,Chile,-23,-67.75,5703,Pyroclastic shield,Holocene,vol-red
Putana,Chile,-22.57,-67.87,5890,Stratovolcano,Historical,vol-red
Puyehue,Chile,-40.59,-72.117,2236,Stratovolcano,Holocene,vol-red
Puyuhuapi,Chile,-44.3,-72.53,255,Cinder cone,Holocene,vol-red
Qal'eh Hasan Ali,Iran,29.4,57.57,0,Maar,Holocene,vol-red
Qualibou,St. Lucia,13.83,-61.05,777,Caldera,Historical,vol-red
Quetrupillan,Chile,-39.5,-71.7,2360,Caldera,Historical,vol-red
Quezaltepeque,Guatemala,14.65,-89.35,1200,Volcanic field,Holocene,vol-red
"Quill, The",Netherlands,17.48,-62.95,601,Stratovolcano,Radiocarbon,vol-red
Quilotoa,Ecuador,-0.85,-78.9,3914,Caldera,Radiocarbon,vol-red
Quimsachata,Peru,-14.37,-71.17,3923,Lava dome,Holocene,vol-red
Rabaul,Papua New Guinea,-4.271,152.203,688,Pyroclastic shield,Historical,vol-red
Ragang,Philippines,7.67,124.5,2815,Stratovolcano,Historical,vol-red
"Rahah, Harrat ar",Saudi Arabia,27.8,36.17,1660,Volcanic field,Anthropology,vol-red
"Rahat, Harrat",Saudi Arabia,23.08,39.78,1744,Volcanic field,Historical,vol-red
Raikoke,Russia,48.292,153.25,551,Stratovolcano,Historical,vol-red
Rainier,United States,46.87,-121.758,4392,Stratovolcano,Dendrochronology,vol-red
Rajabasa,Indonesia,-5.78,105.625,1281,Stratovolcano,Fumarolic,vol-red
Ranakah,Indonesia,-8.62,120.52,2100,Lava dome,Historical,vol-red
Ranau,Indonesia,-4.83,103.92,1881,Caldera,Holocene,vol-red
Raoul Island,New Zealand,-29.27,-177.92,516,Stratovolcano,Historical,vol-red
Rasshua,Russia,47.77,153.02,956,Stratovolcano,Historical,vol-red
Raung,Indonesia,-8.125,114.042,3332,Stratovolcano,Historical,vol-red
Rausu,Japan,44.073,145.125,1660,Stratovolcano,Tephrochronology,vol-red
Recheschnoi,United States,53.15,-168.55,1984,Stratovolcano,Holocene,vol-red
Reclus,Chile,-50.98,-73.7,0,Stratovolcano,Radiocarbon,vol-red
Red Cones,United States,37.58,-119.05,2748,Cinder cone,Holocene,vol-red
Redoubt,United States,60.48,-152.75,3108,Stratovolcano,Historical,vol-red
Reporoa,New Zealand,-38.42,176.33,592,Caldera,Tephrochronology,vol-red
"Resago, Volcan",Chile,-36.45,-70.92,1550,Cinder cone,Holocene,vol-red
Reventador,Ecuador,-0.078,-77.656,3562,Stratovolcano,Historical,vol-red
Reykjanes,Iceland,63.88,-22.5,230,Crater rows,Historical,vol-red
Reykjaneshryggur,Iceland,63.67,-23.33,80,Submarine volcanoes,Historical,vol-red
Rincon de la Vieja,Costa Rica,10.83,-85.324,1916,Complex volcano,Historical,vol-red
Rinjani,Indonesia,-8.42,116.47,3726,Stratovolcano,Historical,vol-red
Risco Plateado,Argentina,-34.933,-70,4999,Stratovolcano,Holocene?,vol-red
Rishiri,Japan,45.18,141.25,1719,Stratovolcano,Radiocarbon,vol-red
Ritter Island,Papua New Guinea,-5.52,148.121,140,Stratovolcano,Historical,vol-red
Robinson Crusoe,Chile,-33.658,-78.85,922,Shield volcano,Historical,vol-red
Robledo,Argentina,-26.767,-67.717,4400,Caldera,Holocene,vol-red
Rocard,France,-17.642,-148.6,-2100,Submarine volcano,Seismicity,vol-red
Romanovka,Russia,55.65,158.8,1442,Stratovolcano,Holocene,vol-red
Rota,Nicaragua,12.55,-86.75,832,Stratovolcano,Holocene,vol-red
Roundtop,United States,54.8,-163.6,1871,Stratovolcano,Holocene,vol-red
Royal Society Range,Antarctica,-78.25,163.6,3000,Cinder cone,Holocene,vol-red
Ruang,Indonesia,2.28,125.425,725,Stratovolcano,Historical,vol-red
Ruapehu,New Zealand,-39.28,175.57,2797,Stratovolcano,Historical,vol-red
Ruby,United States,15.617,145.567,-230,Submarine volcano,Historical,vol-red
Ruby,United States,15.62,145.57,-230,Submarine volcano,Historical,vol-red
Ruby Mountain,Canada,59.68,-133.32,1523,Cinder cone,Historical,vol-red
Rudakov,Russia,45.88,149.83,542,Stratovolcano,Holocene,vol-red
Ruiz,Colombia,4.895,-75.322,5321,Stratovolcano,Historical,vol-red
Rumble II West,New Zealand,-35.353,178.527,1200,Submarine volcano,Fumarolic,vol-red
Rumble III,New Zealand,-35.745,178.478,-140,Submarine volcano,Hydrophonic,vol-red
Rumble IV,New Zealand,-36.13,178.05,-450,Submarine volcano,Fumarolic,vol-red
Rumble V,New Zealand,-36.139,178.197,-700,Submarine volcano,Fumarolic,vol-red
Rungwe,Tanzania,-9.13,33.67,2961,Stratovolcano,Holocene,vol-red
R¡o Murta,Chile,-46.167,-72.667,,Pyroclastic cones,Holocene?,vol-red
SW Usangu Basin,Tanzania,-8.75,33.8,2179,Lava dome,Holocene,vol-red
Saba,Netherlands,17.63,-63.23,887,Stratovolcano,Historical,vol-red
Sabalan,Iran,38.25,47.917,4811,Stratovolcano,Holocene,vol-red
Sabancaya,Peru,-15.783,-71.85,5967,Stratovolcanoes,Historical,vol-red
Sabancaya,Peru,-15.78,-71.85,5967,Stratovolcano,Historical,vol-red
Sahand,Iran,37.75,46.433,3707,Stratovolcano,Holocene,vol-red
Sairecabur,Bolivia,-22.73,-67.88,5971,Stratovolcano,Holocene,vol-red
Sakar,Papua New Guinea,-5.414,148.094,992,Stratovolcano,Holocene,vol-red
Sakura-jima,Japan,31.58,130.67,1117,Stratovolcano,Historical,vol-red
Salak,Indonesia,-6.72,106.73,2211,Stratovolcano,Historical,vol-red
San Borja Volc Field,Mexico,28.5,-113.75,1360,Cinder cone,Holocene,vol-red
San Carlos,Equatorial Guinea,3.35,8.52,2260,Shield volcano,Holocene,vol-red
San Cristobal,Ecuador,-0.88,-89.5,759,Shield volcano,Holocene,vol-red
San Cristobal,Nicaragua,12.702,-87.004,1745,Stratovolcano,Historical,vol-red
San Diego,El Salvador,14.27,-89.48,781,Volcanic field,Holocene,vol-red
San Felix,Chile,-26.27,-80.12,183,Shield volcano,Holocene,vol-red
San Joaquin,Equatorial Guinea,3.35,8.63,2009,Shield volcano,Holocene,vol-red
San Jorge,Portugal,38.65,-28.08,1053,Fissure vent,Historical,vol-red
San Jose,Argentina,-33.782,-69.897,5856,Stratovolcano,Historical,vol-red
"San Luis, Isla",Mexico,29.814,-114.384,180,Tuff cone,Holocene,vol-red
San Marcelino,El Salvador,13.853,-89.63,2381,Stratovolcano,Historical,vol-red
San Martin,Mexico,18.572,-95.169,1650,Shield volcano,Historical,vol-red
San Miguel,El Salvador,13.431,-88.272,2130,Stratovolcano,Historical,vol-red
San Pedro,Chile,-21.88,-68.4,6145,Stratovolcano,Historical,vol-red
San Pedro-Pellado,Chile,-35.989,-70.849,3621,Stratovolcano,Holocene,vol-red
San Quintin Volc Field,Mexico,30.468,-115.996,260,Cinder cone,Holocene,vol-red
San Salvador,El Salvador,13.736,-89.286,1893,Stratovolcano,Historical,vol-red
San Vicente,El Salvador,13.623,-88.852,2182,Stratovolcano,Holocene,vol-red
Sanbe,Japan,35.13,132.62,1126,Caldera,Radiocarbon,vol-red
Sand Mountain Field,United States,44.38,-121.93,1664,Cinder cone,Radiocarbon,vol-red
Sanford,United States,62.22,-144.13,4949,Shield volcano,Holocene,vol-red
Sanganguey,Mexico,21.45,-104.73,2340,Stratovolcano,Holocene,vol-red
Sangangey,Mexico,21.45,-104.733,2340,Stratovolcano,Holocene,vol-red
Sangay,Ecuador,-2.03,-78.33,5230,Stratovolcano,Historical,vol-red
Sangeang Api,Indonesia,-8.18,119.058,1949,Complex volcano,Historical,vol-red
"Sano, Wai",Indonesia,-8.68,120.025,903,Caldera,Holocene,vol-red
Santa Ana,El Salvador,13.853,-89.63,2365,Stratovolcano,Historical,vol-red
Santa Clara,United States,37.257,-113.625,1465,Volcanic field,Holocene,vol-red
Santa Cruz,Ecuador,-0.62,-90.33,864,Shield volcano,Holocene,vol-red
Santa Isabel,Equatorial Guinea,3.58,8.75,2972,Shield volcano,Historical,vol-red
Santa Isabel,Colombia,4.82,-75.37,4950,Shield volcano,Radiocarbon,vol-red
Santa Maria,Guatemala,14.756,-91.552,3772,Stratovolcano,Historical,vol-red
Santiago,Ecuador,-0.22,-90.77,920,Shield volcano,Historical,vol-red
"Santiago, Cerro",Guatemala,14.33,-89.87,1192,Volcanic field,Holocene,vol-red
Santo Antao,Cape Verde,17.07,-25.17,1979,Stratovolcano,Holocene,vol-red
Santo Tomas,Philippines,16.33,120.55,2260,Stratovolcano,Uncertain,vol-red
Santorini,Greece,36.404,25.396,329,Shield volcano,Historical,vol-red
Sao Tome,Sao Tome & Principe,0.32,6.72,2024,Shield volcano,Holocene,vol-red
Sarigan,United States,16.708,145.783,538,Stratovolcano,Holocene,vol-red
Sarigan,United States,16.708,145.78,538,Stratovolcano,Holocene,vol-red
Sarik-Gajah,Indonesia,0.08,100.2,0,Pyroclastic cone,Holocene,vol-red
Sarychev Peak,Russia,48.092,153.2,1496,Stratovolcano,Historical,vol-red
Satah Mountain,Canada,52.47,-124.7,1921,Volcanic field,Holocene,vol-red
Savai'i,Samoa,-13.612,-172.525,1858,Shield volcano,Historical,vol-red
Savo,Solomon Is.,-9.13,159.82,510,Stratovolcano,Historical,vol-red
"Sawad, Harra Es-",Yemen,13.58,46.12,1737,Volcanic field,Historical,vol-red
Schmidt,Russia,54.917,160.633,2020,Shield volcano,Holocene,vol-red
Seal Nunataks Group,Antarctica,-65.03,-60.05,368,Pyroclastic cone,Historical,vol-red
Seamount X,United States,13.25,144.017,-1230,Submarine volcano,Fumarolic,vol-red
Sedankinsky,Russia,57.23,160.08,1241,Shield volcano,Holocene,vol-red
Segererua Plateau,Kenya,1.57,37.9,699,Pyroclastic cone,Holocene,vol-red
Seguam,United States,52.32,-172.52,1054,Stratovolcano,Historical,vol-red
Segula,United States,52.02,178.13,1153,Stratovolcano,Holocene,vol-red
Sekincau Belirang,Indonesia,-5.12,104.32,1719,Caldera,Fumarolic,vol-red
Semeru,Indonesia,-8.108,112.92,3676,Stratovolcano,Historical,vol-red
Semisopochnoi,United States,51.95,179.62,1221,Stratovolcano,Historical,vol-red
Sempu,Indonesia,1.142,124.73,1549,Caldera,Fumarolic,vol-red
Serdan-Oriental,Mexico,19.27,-97.47,3485,Tuff cone,Holocene,vol-red
Sergief,United States,52.03,-174.93,560,Stratovolcano,Uncertain,vol-red
Serua,Pacific Ocean,-6.3,130,641,Stratovolcano,Historical,vol-red
Sessagara,Papua New Guinea,-9.48,149.13,370,Unknown,Holocene,vol-red
Sete Cidades,Portugal,37.87,-25.78,856,Stratovolcano,Historical,vol-red
Seulawah Agam,Indonesia,5.448,95.658,1810,Stratovolcano,Historical,vol-red
Severny,Russia,58.28,160.87,1936,Shield volcano,Holocene,vol-red
Shala,Ethiopia,7.47,38.55,2075,Stratovolcano,Holocene,vol-red
Sharat Kovakab,Syria,36.53,40.85,534,Volcanic field,Holocene,vol-red
Shasta,United States,41.42,-122.2,4317,Stratovolcano,Historical,vol-red
Shiga,Japan,36.7,138.52,2036,Shield volcano,Holocene,vol-red
Shikaribetsu Group,Japan,43.28,143.08,1430,Lava dome,Holocene,vol-red
Shikotsu,Japan,42.7,141.33,1320,Caldera,Historical,vol-red
Shiretoko-Iwo-zan,Japan,44.13,145.17,1563,Stratovolcano,Historical,vol-red
Shirinki,Russia,50.2,154.98,761,Stratovolcano,Holocene,vol-red
Shishaldin,United States,54.75,-163.97,2857,Stratovolcano,Historical,vol-red
Shisheika,Russia,57.15,161.083,379,Lava dome,Radiocarbon,vol-red
Shishel,Russia,57.45,160.37,2525,Shield volcano,Holocene,vol-red
Shiveluch,Russia,56.653,161.36,3283,Stratovolcano,Historical,vol-red
Shoshone Lava Field,United States,43.07,-114.43,1525,Cinder cone,Holocene,vol-red
Sibayak,Indonesia,3.2,98.52,2212,Stratovolcano,Historical,vol-red
Sibualbuali,Indonesia,1.556,99.255,1819,Stratovolcano,Holocene,vol-red
Silali,Kenya,1.15,36.23,1528,Shield volcano,Ar/Ar,vol-red
Silay,Philippines,10.77,123.23,1535,Stratovolcano,Holocene,vol-red
Silverthrone,Canada,51.43,-126.3,3160,Caldera,Holocene,vol-red
Simbo,Solomon Is.,-8.292,156.52,335,Stratovolcano,Uncertain,vol-red
Sinabung,Indonesia,3.17,98.392,2460,Stratovolcano,Holocene,vol-red
Sinarka,Russia,48.875,154.175,934,Stratovolcano,Historical,vol-red
Singu Plateau,Myanmar,22.7,95.98,507,Fissure vent,Holocene,vol-red
"Singuil, Cerro",El Salvador,14.03,-89.7,957,Cinder cone,Holocene,vol-red
Siple,Antarctica,-73.43,-126.67,3110,Shield volcano,Holocene,vol-red
Sirung,Indonesia,-8.51,124.148,862,Complex volcano,Historical,vol-red
Slamet,Indonesia,-7.242,109.208,3432,Stratovolcano,Historical,vol-red
Smirnov,Russia,44.43,146.13,1189,Stratovolcano,Holocene,vol-red
Smith Rock,Japan,31.32,140.05,136,Submarine volcano,Historical,vol-red
Smith Volcano,Philippines,19.523,121.94,2090,Stratovolcano,Historical,vol-red
Snaefellsjokull,Iceland,64.8,-23.78,1448,Stratovolcano,Radiocarbon,vol-red
Snegovoy,Russia,58.2,160.97,2169,Shield volcano,Holocene,vol-red
Snezhniy,Russia,58.02,160.75,2169,Shield volcano,Holocene,vol-red
Snowy,United States,58.33,-154.68,2161,Stratovolcano,Fumarolic,vol-red
Soche,Ecuador,0.552,-77.58,3955,Stratovolcano,Radiocarbon,vol-red
Socompa,Argentina,-24.4,-68.25,6051,Stratovolcano,Radiocarbon,vol-red
Socorro,Mexico,18.78,-110.95,1050,Shield volcano,Historical,vol-red
Sodore,Ethiopia,8.43,39.35,1765,Pyroclastic cone,Holocene,vol-red
Sollipulli,Chile,-38.97,-71.52,2282,Caldera,Radiocarbon,vol-red
Soputan,Indonesia,1.108,124.725,1784,Stratovolcano,Historical,vol-red
Sorikmarapi,Indonesia,0.686,99.539,2145,Stratovolcano,Historical,vol-red
Sorkale,Ethiopia,13.18,41.725,1611,Stratovolcano,Holocene,vol-red
Sotara,Colombia,2.12,-76.58,4400,Stratovolcano,Holocene,vol-red
Soufriere Guadeloupe,Guadeloupe,16.05,-61.67,1467,Stratovolcano,Historical,vol-red
Soufriere Hills,Montserrat,16.72,-62.18,915,Stratovolcano,Historical,vol-red
Soufriere St. Vincent,St. Vincent & the Grenadines,13.33,-61.18,1220,Stratovolcano,Historical,vol-red
South Island,Kenya,2.63,36.6,700,Stratovolcano,Historical,vol-red
South Sister,United States,44.1,-121.77,3157,Complex volcano,Radiocarbon,vol-red
Southern EPR-Segment I,Pacific Ocean,-18.533,-113.417,-2600,Submarine volcano,Magnetism,vol-red
Southern EPR-Segment J,Pacific Ocean,-18.175,-113.35,-2650,Submarine volcano,Magnetism,vol-red
Southern EPR-Segment K,Pacific Ocean,-17.436,-113.206,-2566,Submarine volcano,Historical,vol-red
Southern Sikhote-Alin,Russia,44.5,135.5,0,Volcanic field,Holocene,vol-red
Spectrum Range,Canada,57.43,-130.68,2430,Shield volcano,Holocene,vol-red
Spokoiny,Russia,58.133,160.817,2171,Stratovolcano,Radiocarbon,vol-red
Spurr,United States,61.3,-152.25,3374,Stratovolcano,Historical,vol-red
Squaw Ridge Field,United States,43.472,-120.754,1711,Volcanic field,Holocene,vol-red
Srednii,Russia,47.6,152.92,36,Submarine volcano,Holocene,vol-red
St. Andrew Strait,Papua New Guinea,-2.38,147.35,270,Complex volcano,Historical,vol-red
St. Catherine,Grenada,12.15,-61.67,840,Stratovolcano,Holocene,vol-red
St. Helens,United States,46.2,-122.18,2549,Stratovolcano,Historical,vol-red
St. Michael,United States,63.45,-162.12,715,Shield volcano,Anthropology,vol-red
St. Paul,Indian Ocean,-38.72,77.53,268,Stratovolcano,Historical,vol-red
Steamboat Springs,United States,39.375,-119.72,1415,Lava dome,Pleistocene-Fumarol,vol-red
Steller,United States,58.43,-154.4,2272,Unknown,Uncertain,vol-red
Stepovak Bay 3,United States,55.929,-160.002,1555,Cinder cone,Holocene?,vol-red
Stepovak Bay 4,United States,55.954,-159.954,1557,Stratovolcano,Pleistocene,vol-red
Stromboli,Italy,38.789,15.213,926,Stratovolcano,Historical,vol-red
Sturge Island,Antarctica,-67.4,164.83,1167,Stratovolcano,Uncertain,vol-red
Suchitan Volc Field,Guatemala,14.4,-89.78,2042,Stratovolcano,Holocene,vol-red
Sukaria Caldera,Indonesia,-8.792,121.77,1500,Caldera,Fumarolic,vol-red
Sumaco,Ecuador,-0.538,-77.626,3990,Stratovolcano,Historical,vol-red
Sumbing,Indonesia,-2.414,101.728,2507,Stratovolcano,Historical,vol-red
Sumbing,Indonesia,-7.38,110.058,3371,Stratovolcano,Historical,vol-red
Sumiyoshi-ike,Japan,31.768,130.594,100,Maar,Radiocarbon,vol-red
Sundoro,Indonesia,-7.3,109.992,3136,Stratovolcano,Historical,vol-red
Sunset Crater,United States,35.37,-111.5,2447,Cinder cone,Dendrochronology,vol-red
Suoh,Indonesia,-5.25,104.27,1000,Maar,Historical,vol-red
Suphan Dagi,Turkey,38.92,42.82,4434,Stratovolcano,Holocene,vol-red
Supply Reef,United States,20.13,145.1,-8,Submarine volcano,Hydrophonic,vol-red
Suretamatai,Vanuatu,-13.8,167.47,921,Complex volcano,Historical,vol-red
Suswa,Kenya,-1.175,36.35,2356,Shield volcano,Holocene,vol-red
Suwanose-jima,Japan,29.53,129.72,799,Stratovolcano,Historical,vol-red
Ta'u,United States,-14.23,-169.454,931,Shield volcano,Holocene,vol-red
Taal,Philippines,14.002,120.993,400,Stratovolcano,Historical,vol-red
Taburete,El Salvador,13.435,-88.532,1172,Stratovolcano,Holocene,vol-red
Tacana,Mexico,15.13,-92.112,4110,Stratovolcano,Historical,vol-red
Tacora,Chile,-17.72,-69.77,5980,Stratovolcano,Fumarolic,vol-red
Taftan,Iran,28.6,61.6,4050,Stratovolcano,Holocene,vol-red
Tafu-Maka,Tonga,-15.367,-174.233,-1400,Submarine volcano,Historical,vol-red
Tahalra Volc Field,Algeria,22.667,5,1467,Pyroclastic cones,Holocene,vol-red
Tahual,Guatemala,14.433,-89.9,1716,Stratovolcano,Holocene,vol-red
"Tair, Jebel at",Yemen,15.7,41.742,244,Stratovolcano,Historical,vol-red
Tajumulco,Guatemala,15.034,-91.903,4220,Stratovolcano,Holocene,vol-red
Takahara,Japan,36.9,139.78,1795,Stratovolcano,Holocene,vol-red
Takahe,Antarctica,-76.28,-112.08,3460,Shield volcano,Ice Core,vol-red
Takawangha,United States,51.87,-178.02,1449,Stratovolcano,Holocene,vol-red
Takuan Group,Papua New Guinea,-6.442,155.608,2210,Volcanic complex,Holocene,vol-red
Talagabodas,Indonesia,-7.208,108.07,2201,Stratovolcano,Fumarolic,vol-red
Talakmau,Indonesia,0.079,99.98,2919,Complex volcano,Holocene,vol-red
Talang,Indonesia,-0.978,100.679,2597,Stratovolcano,Historical,vol-red
Tambora,Indonesia,-8.25,118,2850,Stratovolcano,Historical,vol-red
Tampomas,Indonesia,-6.77,107.95,1684,Stratovolcano,Holocene,vol-red
Tana,United States,52.833,-169.767,1170,Stratovolcanoes,Holocene,vol-red
Tanaga,United States,51.88,-178.13,1806,Stratovolcano,Historical,vol-red
Tandikat,Indonesia,-0.433,100.317,2438,Stratovolcano,Historical,vol-red
Tangaroa,New Zealand,-36.321,178.028,600,Submarine volcano,Fumarolic,vol-red
Tangkubanparahu,Indonesia,-6.77,107.6,2084,Stratovolcano,Historical,vol-red
Tao-Rusyr Caldera,Russia,49.35,154.7,1325,Stratovolcano,Historical,vol-red
"Tara, Batu",Indonesia,-7.792,123.579,748,Stratovolcano,Historical,vol-red
Tarakan,Indonesia,1.78,127.792,318,Pyroclastic cone,Holocene,vol-red
Taryatu-Chulutu,Mongolia,48.17,99.7,2400,Volcanic field,Holocene,vol-red
Tat Ali,Ethiopia,13.28,41.07,700,Shield volcano,Holocene,vol-red
Tate-yama,Japan,36.57,137.6,2621,Stratovolcano,Historical,vol-red
Tateshina,Japan,36.1,138.3,2530,Stratovolcano,Holocene,vol-red
Tatun Group,China,25.17,121.52,1120,Stratovolcano,Pleistocene-Fumarol,vol-red
Taunshits,Russia,54.53,159.8,2353,Stratovolcano,Radiocarbon,vol-red
Taupo,New Zealand,-38.82,176,760,Caldera,Radiocarbon,vol-red
Taveuni,Fiji,-16.82,-179.97,1241,Shield volcano,Radiocarbon,vol-red
Tavui,Papua New Guinea,-4.117,152.2,200,Caldera,Radiocarbon,vol-red
Teahitia,France,-17.57,-148.85,-1600,Submarine volcano,Seismicity,vol-red
Tecapa,El Salvador,13.494,-88.502,1593,Stratovolcano,Holocene,vol-red
Tecuamburro,Guatemala,14.156,-90.407,1845,Stratovolcano,Radiocarbon,vol-red
Telica,Nicaragua,12.602,-86.845,1061,Stratovolcano,Historical,vol-red
Telomoyo,Indonesia,-7.37,110.4,1894,Stratovolcano,Holocene,vol-red
"Telong, Bur Ni",Indonesia,4.77,96.808,2624,Stratovolcano,Historical,vol-red
Tenduruk Dagi,Turkey,39.33,43.83,3584,Shield volcano,Holocene,vol-red
Tenerife,Spain,28.271,-16.641,3715,Stratovolcano,Historical,vol-red
Tengchong,China,25.32,98.47,2865,Pyroclastic cone,Historical,vol-red
Tengger Caldera,Indonesia,-7.942,112.95,2329,Stratovolcano,Historical,vol-red
Tenorio,Costa Rica,10.673,-85.015,1916,Stratovolcano,Holocene,vol-red
Teon,Pacific Ocean,-6.92,129.125,655,Stratovolcano,Historical,vol-red
Tepi,Ethiopia,7.42,35.43,2728,Shield volcano,Holocene,vol-red
Terceira,Portugal,38.73,-27.32,1023,Stratovolcano,Historical,vol-red
Terpuk,Russia,57.2,159.833,765,Shield volcano,Radiocarbon,vol-red
Theistareykjarbunga,Iceland,65.88,-16.83,564,Shield volcano,Tephrochronology,vol-red
Thompson Island,Atlantic Ocean,-53.93,5.5,0,Submarine volcano,Uncertain,vol-red
Thordarhyrna,Iceland,62.27,-17.6,1659,Stratovolcano,Historical,vol-red
Thule Islands,Antarctica,-59.45,-27.37,1075,Stratovolcano,Historical,vol-red
Tianshan Volc Group,China,42.5,82.5,0,Volcanic field,Historical,vol-red
Tiatia,Russia,44.358,146.27,1819,Stratovolcano,Historical,vol-red
Ticsani,Peru,-16.755,-70.595,5408,Stratovolcano,Holocene,vol-red
Tidore,Indonesia,0.65,127.4,1730,Stratovolcano,Holocene,vol-red
Tigalalu,Indonesia,0.07,127.42,422,Unknown,Holocene,vol-red
"Tigre, El",El Salvador,13.467,-88.433,1640,Stratovolcano,Holocene,vol-red
"Tigre, Isla El",Honduras,13.27,-87.63,760,Stratovolcano,Holocene,vol-red
Tin Zaouatene Volc Field,Mali,19.833,2.833,,Volcanic field,Holocene,vol-red
Tinakula,Solomon Is.,-10.38,165.8,851,Stratovolcano,Historical,vol-red
Tindfjallajokull,Iceland,63.78,-19.57,1463,Stratovolcano,Holocene,vol-red
Tinguiririca,Chile,-34.814,-70.352,4280,Stratovolcano,Historical,vol-red
Tipas,Argentina,-27.2,-68.55,6660,Complex volcano,Holocene,vol-red
Tipas,Argentina,-27.2,-68.55,6660,Complex volcano,Holocene,vol-red
Titila,Russia,57.4,160.1,1559,Shield volcano,Holocene,vol-red
Tjornes Fracture Zone,Iceland,66.3,-17.1,0,Submarine volcano,Historical,vol-red
Tlevak Strait-Suemez Is.,United States,55.25,-133.3,50,Volcanic field,Holocene,vol-red
To-shima,Japan,34.52,139.28,508,Stratovolcano,Holocene,vol-red
Toba,Indonesia,2.58,98.83,2157,Caldera,Holocene,vol-red
Tobaru,Indonesia,1.625,127.675,1035,Unknown,Holocene,vol-red
Todoko-Ranu,Indonesia,1.22,127.43,979,Caldera,Holocene,vol-red
Todra Volc Field,Chad,17.683,8.5,2000,Volcanic field,Holocene,vol-red
Tofua,Tonga,-19.75,-175.07,512,Caldera,Historical,vol-red
"Toh, Tarso",Chad,21.333,16.333,2000,Volcanic field,Holocene,vol-red
Tokachi,Japan,43.42,142.68,2077,Stratovolcano,Historical,vol-red
Tolbachik,Russia,55.83,160.33,3682,Shield volcano,Historical,vol-red
Tolguaca,Chile,-38.31,-71.645,2806,Stratovolcano,Holocene,vol-red
Tolguaca,Chile,-38.31,-71.645,2806,Stratovolcano,Holocene,vol-red
Tolima,Colombia,4.67,-75.33,5200,Stratovolcano,Historical,vol-red
Toliman,Guatemala,14.612,-91.189,3158,Stratovolcano,Holocene,vol-red
Tolmachev Dol,Russia,52.63,157.58,1021,Cinder cone,Holocene,vol-red
"Toluca, Nevado de",Mexico,19.108,-99.758,4690,Stratovolcano,Radiocarbon,vol-red
Tombel Graben,Cameroon,4.75,9.667,500,Cinder cones,Holocene,vol-red
Tondano Caldera,Indonesia,1.23,124.83,1202,Caldera,Fumarolic,vol-red
Toney Mountain,Antarctica,-75.8,-115.83,3595,Shield volcano,Holocene,vol-red
Tongariro,New Zealand,-39.13,175.642,1978,Stratovolcano,Historical,vol-red
Tongkoko,Indonesia,1.52,125.2,1149,Stratovolcano,Historical,vol-red
Tore,Papua New Guinea,-5.83,154.93,2200,Lava cone,Holocene,vol-red
Torfajokull,Iceland,63.92,-19.17,1259,Stratovolcano,Historical,vol-red
Tori-shima,Japan,30.48,140.32,403,Stratovolcano,Historical,vol-red
Toroeng Prong,Vietnam,14.93,108,800,Cinder cone,Holocene,vol-red
"Tortuga, Isla",Mexico,27.392,-111.858,210,Shield volcano,Holocene,vol-red
Tosa Sucha,Ethiopia,5.92,37.57,1650,Cinder cone,Holocene,vol-red
"Tousside, Tarso",Chad,21.03,16.45,3265,Stratovolcano,Holocene,vol-red
Towada,Japan,40.47,140.92,1159,Caldera,Historical,vol-red
Traitor's Head,Vanuatu,-18.75,169.23,837,Stratovolcano,Historical,vol-red
Tres Virgenes,Mexico,27.47,-112.591,1940,Stratovolcano,Radiocarbon,vol-red
Tri Sestry,Russia,45.93,149.92,998,Stratovolcano,Holocene,vol-red
Trident,United States,58.23,-155.08,1864,Stratovolcano,Historical,vol-red
Trindade,Atlantic Ocean,-20.514,-29.331,600,Stratovolcano,Holocene,vol-red
Tristan da Cunha,Atlantic Ocean,-37.092,-12.28,2060,Stratovolcano,Historical,vol-red
Trocon,Argentina,-37.733,-70.9,2500,Lava domes,Holocene?,vol-red
Trollagigar,Iceland,64.43,-18.13,1000,Crater rows,Historical,vol-red
Tromen,Argentina,-37.142,-70.03,3978,Stratovolcano,Holocene,vol-red
Tronador,Chile,-41.157,-71.885,3491,Stratovolcano,Holocene?,vol-red
Tseax River Cone,Canada,55.12,-128.9,609,Pyroclastic cone,Radiocarbon,vol-red
Tshibinda,"Congo, DRC",-2.32,28.75,1460,Cinder cone,Holocene,vol-red
Tskhouk-Karckar,Armenia,39.733,46.017,3000,Pyroclastic cones,Tephrochronology,vol-red
Tsurumi,Japan,33.28,131.43,1584,Lava dome,Historical,vol-red
"Tujle, Cerro",Chile,-23.83,-67.95,3550,Maar,Holocene,vol-red
Tulabug,Ecuador,-1.78,-78.613,3336,Scoria cone,Holocene,vol-red
Tullu Moje,Ethiopia,8.158,39.13,2349,Pumice cone,Anthropology,vol-red
Tumble Buttes,United States,40.68,-121.55,2191,Cinder cone,Holocene,vol-red
Tundroviy,Russia,52.25,157.6,739,Shield volcano,Holocene,vol-red
Tungnafellsjokull,Iceland,64.73,-17.92,1535,Stratovolcano,Holocene,vol-red
Tungurahua,Ecuador,-1.467,-78.442,5023,Stratovolcano,Historical,vol-red
Tunkin Depression,Russia,51.5,102.5,1200,Volcanic field,Holocene,vol-red
Tupungatito,Chile,-33.4,-69.8,6000,Stratovolcano,Historical,vol-red
Turfan,China,42.9,89.25,0,Cone,Historical,vol-red
Turrialba,Costa Rica,10.03,-83.77,3340,Stratovolcano,Historical,vol-red
Tutuila,American Samoa,-14.295,-170.7,653,Tuff cone,Holocene,vol-red
Tutupaca,Peru,-17.025,-70.358,5815,Stratovolcano,Historical,vol-red
Tuya Volc Field,Canada,59.367,-130.583,2123,Volcanic field,Holocene,vol-red
"Tuzgle, Cerro",Argentina,-24.05,-66.483,5500,Stratovolcano,Holocene?,vol-red
Tuzovsky,Russia,57.32,159.97,1533,Shield volcano,Holocene,vol-red
Twin Buttes,United States,40.78,-121.6,1631,Cinder cone,Holocene,vol-red
Ubehebe Craters,United States,37.02,-117.45,752,Maar,Holocene,vol-red
Ubinas,Peru,-16.355,-70.903,5672,Stratovolcano,Historical,vol-red
Udina,Russia,55.755,160.527,2923,Stratovolcano,Holocene,vol-red
Udokan Volc Field,Russia,56.18,117.47,1980,Shield volcano,Radiocarbon,vol-red
Ugashik-Peulik,United States,57.75,-156.37,1474,Stratovolcano,Historical,vol-red
Uinkaret Field,United States,36.38,-113.13,1555,Volcanic field,Holocene,vol-red
Uka,Russia,57.7,160.58,1643,Shield volcano,Holocene,vol-red
